[
  {
    "name": "Aadouiye",
    "city": "Akkar",
    "governorate": "Akkar",
    "latitude": 34.58167,
    "longitude": 36.17806,
    "aliases": ["Douair Aadouiye", "Doueir Aadouiye", "Dweir"]
  },
  {
    "name": "Aaidmoun",
    "city": "Akkar",
    "governorate": "Akkar",
    "latitude": 34.5975,
    "longitude": 36.28722,
    "aliases": ["Aidmoun"]
  },
  {
    "name": "Aaiyat",
    "city": "Akkar",
    "governorate": "Akkar",
    "latitude": 34.53556,
    "longitude": 36.19722,
    "aliases": []
  },
  {
    "name": "Aakkar el Aatiqa",
    "city": "Akkar",
    "governorate": "Akkar",
    "latitude": 34.525,
    "longitude": 36.24167,
    "aliases": ["Aakkari", "Akar"]
  },
  {
    "name": "Aamaret el Bikat",
    "city": "Akkar",
    "governorate": "Akkar",
    "latitude": 34.60889,
    "longitude": 36.16361,
    "aliases": ["Aamar el Beikate", "Aamar el Bikat"]
  },
  {
    "name": "Aandqet",
    "city": "Akkar",
    "governorate": "Akkar",
    "latitude": 34.58694,
    "longitude": 36.30556,
    "aliases": ["Aandkit", "Aanndaqatt", "Andakit"]
  },
  {
    "name": "Aaouade",
    "city": "Akkar",
    "governorate": "Akkar",
    "latitude": 34.62611,
    "longitude": 36.37722,
    "aliases": ["Aaouadi", "El Aouadi", "Wadi Khalid"]
  },
  {
    "name": "Aarab Jourmnaya",
    "city": "Akkar",
    "governorate": "Akkar",
    "latitude": 34.61194,
    "longitude": 36.36139,
    "aliases": []
  },
  {
    "name": "Aarida",
    "city": "Akkar",
    "governorate": "Akkar",
    "latitude": 34.66722,
    "longitude": 36.30417,
    "aliases": []
  },
  {
    "name": "Aayoun el Ghezlane",
    "city": "Akkar",
    "governorate": "Akkar",
    "latitude": 34.47278,
    "longitude": 36.02139,
    "aliases": ["Aayoun el Rhozlane", "Ayoum er Raazlane"]
  },
  {
    "name": "Ain ez Zait",
    "city": "Akkar",
    "governorate": "Akkar",
    "latitude": 34.59111,
    "longitude": 36.19972,
    "aliases": []
  },
  {
    "name": "Ain Faouar",
    "city": "Akkar",
    "governorate": "Akkar",
    "latitude": 34.50278,
    "longitude": 35.98333,
    "aliases": []
  },
  {
    "name": "Ain Tinta",
    "city": "Akkar",
    "governorate": "Akkar",
    "latitude": 34.58444,
    "longitude": 36.18389,
    "aliases": ["Ain Tounta"]
  },
  {
    "name": "Ain Yaaqoub",
    "city": "Akkar",
    "governorate": "Akkar",
    "latitude": 34.52,
    "longitude": 36.19917,
    "aliases": ["Ain Yakoub"]
  },
  {
    "name": "Akroum",
    "city": "Akkar",
    "governorate": "Akkar",
    "latitude": 34.54361,
    "longitude": 36.36306,
    "aliases": ["Akrum"]
  },
  {
    "name": "Al 'Ullayqah",
    "city": "Akkar",
    "governorate": "Akkar",
    "latitude": 34.46667,
    "longitude": 36.15,
    "aliases": ["El Aallaiqa", "El Allaiqa"]
  },
  {
    "name": "Al 'Uwaynat",
    "city": "Akkar",
    "governorate": "Akkar",
    "latitude": 34.63333,
    "longitude": 36.3,
    "aliases": ["Aaouainat", "Aaoueinate", "Aoueinate"]
  },
  {
    "name": "Al Hamra'",
    "city": "Akkar",
    "governorate": "Akkar",
    "latitude": 34.63333,
    "longitude": 36.38333,
    "aliases": ["El Hamra", "Hmairat"]
  },
  {
    "name": "Al Humayrah",
    "city": "Akkar",
    "governorate": "Akkar",
    "latitude": 34.51667,
    "longitude": 36.33333,
    "aliases": ["El Hameire", "El Hemaira", "El Hmaire"]
  },
  {
    "name": "Amr ed Dine",
    "city": "Akkar",
    "governorate": "Akkar",
    "latitude": 34.50722,
    "longitude": 36.0825,
    "aliases": ["Qamar ad Din"]
  },
  {
    "name": "An Nassar",
    "city": "Akkar",
    "governorate": "Akkar",
    "latitude": 34.53333,
    "longitude": 36.13333,
    "aliases": ["Enn Nsour", "Enn Nsu"]
  },
  {
    "name": "Ar Ru'ays",
    "city": "Akkar",
    "governorate": "Akkar",
    "latitude": 34.51667,
    "longitude": 36.15,
    "aliases": ["Er Rouaiss", "Er-Rweis"]
  },
  {
    "name": "Baddouaa",
    "city": "Akkar",
    "governorate": "Akkar",
    "latitude": 34.48972,
    "longitude": 35.99111,
    "aliases": []
  },
  {
    "name": "Bajaa",
    "city": "Akkar",
    "governorate": "Akkar",
    "latitude": 34.48972,
    "longitude": 36.07556,
    "aliases": []
  },
  {
    "name": "Baldah",
    "city": "Akkar",
    "governorate": "Akkar",
    "latitude": 34.56667,
    "longitude": 36.15,
    "aliases": ["Balde"]
  },
  {
    "name": "Barbara",
    "city": "Akkar",
    "governorate": "Akkar",
    "latitude": 34.57389,
    "longitude": 36.1875,
    "aliases": ["Barbarah", "Birbarah", "El-Birbarah"]
  },
  {
    "name": "Bchamra",
    "city": "Akkar",
    "governorate": "Akkar",
    "latitude": 34.40367,
    "longitude": 35.81686,
    "aliases": ["Bashamra", "bshmra"]
  },
  {
    "name": "Bebnine",
    "city": "Akkar",
    "governorate": "Akkar",
    "latitude": 34.49917,
    "longitude": 35.99306,
    "aliases": ["Bibnin", "bbyn"]
  },
  {
    "name": "Beino",
    "city": "Akkar",
    "governorate": "Akkar",
    "latitude": 34.53778,
    "longitude": 36.17889,
    "aliases": ["Bayn", "Baynu"]
  },
  {
    "name": "Beit Ali Adraa",
    "city": "Akkar",
    "governorate": "Akkar",
    "latitude": 34.55361,
    "longitude": 36.32639,
    "aliases": []
  },
  {
    "name": "Beit Ayoub",
    "city": "Akkar",
    "governorate": "Akkar",
    "latitude": 34.47389,
    "longitude": 36.16028,
    "aliases": ["Bayt Ayyub", "Beit Aiyoub"]
  },
  {
    "name": "Beit Barakat",
    "city": "Akkar",
    "governorate": "Akkar",
    "latitude": 34.43067,
    "longitude": 35.90887,
    "aliases": ["Bayt Barakat", "byt brkat"]
  },
  {
    "name": "Beit Daoud",
    "city": "Akkar",
    "governorate": "Akkar",
    "latitude": 34.51889,
    "longitude": 36.17278,
    "aliases": ["Bayt Dawud", "Beit Danud"]
  },
  {
    "name": "Beit ech Chami",
    "city": "Akkar",
    "governorate": "Akkar",
    "latitude": 34.42415,
    "longitude": 35.9908,
    "aliases": ["Bayt ash Shami", "byt alshamy"]
  },
  {
    "name": "Beit el Haj",
    "city": "Akkar",
    "governorate": "Akkar",
    "latitude": 34.55917,
    "longitude": 36.10611,
    "aliases": ["Bayt Hajj", "Bayt al Hajj", "Beit Hajj"]
  },
  {
    "name": "Beit el Haouch",
    "city": "Akkar",
    "governorate": "Akkar",
    "latitude": 34.47659,
    "longitude": 36.00017,
    "aliases": ["Bayt Hawsh", "Bayt al Hawsh", "byt alhwsh"]
  },
  {
    "name": "Beit ez Zahle",
    "city": "Akkar",
    "governorate": "Akkar",
    "latitude": 34.48194,
    "longitude": 36.10917,
    "aliases": ["Bayt az Zahlah", "Es Sihane"]
  },
  {
    "name": "Beit Khlaiyel",
    "city": "Akkar",
    "governorate": "Akkar",
    "latitude": 34.53417,
    "longitude": 36.22389,
    "aliases": ["Bayt Khalil", "Beit Khalil"]
  },
  {
    "name": "Beit Mellat",
    "city": "Akkar",
    "governorate": "Akkar",
    "latitude": 34.52972,
    "longitude": 36.1625,
    "aliases": ["Bayt Mallat", "Bayt Millat", "Beit Mellate"]
  },
  {
    "name": "Beit Younis",
    "city": "Akkar",
    "governorate": "Akkar",
    "latitude": 34.47556,
    "longitude": 36.14917,
    "aliases": ["Bayt Yunus", "Beit Younes", "Beit Youness"]
  },
  {
    "name": "Bellanet el Hissa",
    "city": "Akkar",
    "governorate": "Akkar",
    "latitude": 34.58056,
    "longitude": 36.04861,
    "aliases": ["Ballanat al Hisah"]
  },
  {
    "name": "Berqayel",
    "city": "Akkar",
    "governorate": "Akkar",
    "latitude": 34.47833,
    "longitude": 36.03333,
    "aliases": ["Barqayel", "Barqayil", "Birqayil"]
  },
  {
    "name": "Bezbina",
    "city": "Akkar",
    "governorate": "Akkar",
    "latitude": 34.51528,
    "longitude": 36.19611,
    "aliases": ["Bazbeena", "Bazbina", "Bizbina"]
  },
  {
    "name": "Biyout Zabboud",
    "city": "Akkar",
    "governorate": "Akkar",
    "latitude": 34.53111,
    "longitude": 36.26,
    "aliases": ["Zabbud"]
  },
  {
    "name": "Bqerzla",
    "city": "Akkar",
    "governorate": "Akkar",
    "latitude": 34.51167,
    "longitude": 36.05556,
    "aliases": ["Bkerzala", "Bqarzla", "Bqirzla"]
  },
  {
    "name": "Bzaita",
    "city": "Akkar",
    "governorate": "Akkar",
    "latitude": 34.4475,
    "longitude": 36.08,
    "aliases": ["Bzayta"]
  },
  {
    "name": "Bzal",
    "city": "Akkar",
    "governorate": "Akkar",
    "latitude": 34.47194,
    "longitude": 36.04361,
    "aliases": ["Bizal", "Bzat"]
  },
  {
    "name": "Chadra",
    "city": "Akkar",
    "governorate": "Akkar",
    "latitude": 34.61972,
    "longitude": 36.32333,
    "aliases": ["Shadrah"]
  },
  {
    "name": "Chane",
    "city": "Akkar",
    "governorate": "Akkar",
    "latitude": 34.4825,
    "longitude": 36.11472,
    "aliases": ["Shan"]
  },
  {
    "name": "Charbila",
    "city": "Akkar",
    "governorate": "Akkar",
    "latitude": 34.58222,
    "longitude": 36.14667,
    "aliases": ["Sharbila"]
  },
  {
    "name": "Cheikh Taba",
    "city": "Akkar",
    "governorate": "Akkar",
    "latitude": 34.53306,
    "longitude": 36.0775,
    "aliases": ["Ash Shaykh Taba", "Esh-Sheikh Taba"]
  },
  {
    "name": "Cheikh Zennad",
    "city": "Akkar",
    "governorate": "Akkar",
    "latitude": 34.60694,
    "longitude": 35.98667,
    "aliases": ["Ash Shaykh Zinad", "Cheikh Zenade", "Ech Cheikh Zenad"]
  },
  {
    "name": "Cheikhlar",
    "city": "Akkar",
    "governorate": "Akkar",
    "latitude": 34.62111,
    "longitude": 36.27306,
    "aliases": ["Chikhlar", "Esh-Sheikh Lar", "Shaykhlar"]
  },
  {
    "name": "Chir Hmairine",
    "city": "Akkar",
    "governorate": "Akkar",
    "latitude": 34.61917,
    "longitude": 36.11722,
    "aliases": ["Cheikh Hammeirine", "Schir Humayrin", "Shir Humayrin"]
  },
  {
    "name": "Dabadeb",
    "city": "Akkar",
    "governorate": "Akkar",
    "latitude": 34.61361,
    "longitude": 36.38417,
    "aliases": []
  },
  {
    "name": "Dahr el Houssein",
    "city": "Akkar",
    "governorate": "Akkar",
    "latitude": 34.45385,
    "longitude": 35.99133,
    "aliases": ["Dahr al Husayn", "dhr alhsyn"]
  },
  {
    "name": "Dahr el Laissine",
    "city": "Akkar",
    "governorate": "Akkar",
    "latitude": 34.53639,
    "longitude": 36.14056,
    "aliases": []
  },
  {
    "name": "Dar 'Ayn al 'Awra'",
    "city": "Akkar",
    "governorate": "Akkar",
    "latitude": 34.56667,
    "longitude": 36.16667,
    "aliases": ["Dar Ain el Aaoura", "Dar Ain el Aaouro"]
  },
  {
    "name": "Darine",
    "city": "Akkar",
    "governorate": "Akkar",
    "latitude": 34.60417,
    "longitude": 36.10583,
    "aliases": ["Dareen", "Darin"]
  },
  {
    "name": "Deir Dalloum",
    "city": "Akkar",
    "governorate": "Akkar",
    "latitude": 34.51944,
    "longitude": 36.03694,
    "aliases": ["Dayr Dallum"]
  },
  {
    "name": "Deir Janine",
    "city": "Akkar",
    "governorate": "Akkar",
    "latitude": 34.565,
    "longitude": 36.17778,
    "aliases": ["Dayr Janin", "Dayr Jannin", "Deir Janeen"]
  },
  {
    "name": "Deir Mar Nohra",
    "city": "Akkar",
    "governorate": "Akkar",
    "latitude": 34.55722,
    "longitude": 36.13778,
    "aliases": ["Dayr Mar Nahra", "Deir Mar Nahra"]
  },
  {
    "name": "Denke",
    "city": "Akkar",
    "governorate": "Akkar",
    "latitude": 34.60333,
    "longitude": 36.22917,
    "aliases": ["Dankah", "Dennki"]
  },
  {
    "name": "Dinbou",
    "city": "Akkar",
    "governorate": "Akkar",
    "latitude": 34.47889,
    "longitude": 36.08778,
    "aliases": ["Danbu", "Dennbou", "Dinnbo"]
  },
  {
    "name": "Ech Cheikh Aaiach",
    "city": "Akkar",
    "governorate": "Akkar",
    "latitude": 34.62861,
    "longitude": 36.1025,
    "aliases": []
  },
  {
    "name": "Ech Cheikh Mohammed",
    "city": "Akkar",
    "governorate": "Akkar",
    "latitude": 34.54972,
    "longitude": 36.08417,
    "aliases": ["Ash Shaykh Muhammad", "Cheikh Mohammad", "Esh-Sheikh Mohamed"]
  },
  {
    "name": "Ed Dabbabiye ech Charqiye",
    "city": "Akkar",
    "governorate": "Akkar",
    "latitude": 34.62278,
    "longitude": 36.21556,
    "aliases": ["Ad Dabbabiyah ash Sharqiyah", "Ed Dibbabiyah Sharqi"]
  },
  {
    "name": "Ed Dabbabiye el Gharbiye",
    "city": "Akkar",
    "governorate": "Akkar",
    "latitude": 34.62278,
    "longitude": 36.21556,
    "aliases": [
      "Ad Dabbabiyah al Gharbiyah",
      "Ed Dibbabiyah",
      "Ed Dibbabiyah Gharbi"
    ]
  },
  {
    "name": "Ed Daghle",
    "city": "Akkar",
    "governorate": "Akkar",
    "latitude": 34.58139,
    "longitude": 36.21,
    "aliases": []
  },
  {
    "name": "Ed Daher",
    "city": "Akkar",
    "governorate": "Akkar",
    "latitude": 34.48639,
    "longitude": 36.19028,
    "aliases": ["Ain el Qatroun", "Az Zahir"]
  },
  {
    "name": "Ed Daoura",
    "city": "Akkar",
    "governorate": "Akkar",
    "latitude": 34.54444,
    "longitude": 36.21639,
    "aliases": ["Ad Dawrah", "Daurah"]
  },
  {
    "name": "Ed Daousse",
    "city": "Akkar",
    "governorate": "Akkar",
    "latitude": 34.6,
    "longitude": 36.19111,
    "aliases": ["Ad Dawsah", "Daousse", "Dawsah"]
  },
  {
    "name": "Ej Jdide",
    "city": "Akkar",
    "governorate": "Akkar",
    "latitude": 34.53389,
    "longitude": 36.06778,
    "aliases": ["Al Jdaydih", "Al Judaydah", "Ej Jdaide"]
  },
  {
    "name": "Ej Joaaor",
    "city": "Akkar",
    "governorate": "Akkar",
    "latitude": 34.56889,
    "longitude": 36.09583,
    "aliases": []
  },
  {
    "name": "El Aabboudiye",
    "city": "Akkar",
    "governorate": "Akkar",
    "latitude": 34.63278,
    "longitude": 36.11722,
    "aliases": ["Aabboudiye", "Abudiyeh", "Adoudieh"]
  },
  {
    "name": "El Aabde",
    "city": "Akkar",
    "governorate": "Akkar",
    "latitude": 34.51694,
    "longitude": 35.96833,
    "aliases": ["El Abdeh"]
  },
  {
    "name": "El Aamara",
    "city": "Akkar",
    "governorate": "Akkar",
    "latitude": 34.53222,
    "longitude": 36.01028,
    "aliases": ["Aamara"]
  },
  {
    "name": "El Aamayer",
    "city": "Akkar",
    "governorate": "Akkar",
    "latitude": 34.62778,
    "longitude": 36.38611,
    "aliases": []
  },
  {
    "name": "El Aamriye",
    "city": "Akkar",
    "governorate": "Akkar",
    "latitude": 34.60028,
    "longitude": 36.21861,
    "aliases": ["Amriye"]
  },
  {
    "name": "El Aaouaichat",
    "city": "Akkar",
    "governorate": "Akkar",
    "latitude": 34.62278,
    "longitude": 36.38139,
    "aliases": []
  },
  {
    "name": "El Aarida",
    "city": "Akkar",
    "governorate": "Akkar",
    "latitude": 34.63333,
    "longitude": 35.97778,
    "aliases": ["El Aanda", "El Arida"]
  },
  {
    "name": "El Aarme",
    "city": "Akkar",
    "governorate": "Akkar",
    "latitude": 34.63,
    "longitude": 36.16194,
    "aliases": []
  },
  {
    "name": "El Aayoun",
    "city": "Akkar",
    "governorate": "Akkar",
    "latitude": 34.52833,
    "longitude": 36.17333,
    "aliases": []
  },
  {
    "name": "El Baghdadi",
    "city": "Akkar",
    "governorate": "Akkar",
    "latitude": 34.60417,
    "longitude": 36.18694,
    "aliases": ["Al Baghdadi"]
  },
  {
    "name": "El Barde",
    "city": "Akkar",
    "governorate": "Akkar",
    "latitude": 34.59778,
    "longitude": 36.25833,
    "aliases": ["Al Baridah", "Barde", "El Bardah"]
  },
  {
    "name": "El Bayada",
    "city": "Akkar",
    "governorate": "Akkar",
    "latitude": 34.51694,
    "longitude": 35.99028,
    "aliases": []
  },
  {
    "name": "El Bire",
    "city": "Akkar",
    "governorate": "Akkar",
    "latitude": 34.58778,
    "longitude": 36.23722,
    "aliases": ["Al Birah", "Al Biri", "Bire"]
  },
  {
    "name": "El Borj",
    "city": "Akkar",
    "governorate": "Akkar",
    "latitude": 34.53139,
    "longitude": 36.1875,
    "aliases": ["Al Burj", "El-Burj"]
  },
  {
    "name": "El Boustane",
    "city": "Akkar",
    "governorate": "Akkar",
    "latitude": 34.51222,
    "longitude": 36.32889,
    "aliases": ["Al Bustan"]
  },
  {
    "name": "El Bouwab",
    "city": "Akkar",
    "governorate": "Akkar",
    "latitude": 34.53833,
    "longitude": 36.22417,
    "aliases": []
  },
  {
    "name": "El Fraidis",
    "city": "Akkar",
    "governorate": "Akkar",
    "latitude": 34.61556,
    "longitude": 36.22972,
    "aliases": []
  },
  {
    "name": "El Ghawaya",
    "city": "Akkar",
    "governorate": "Akkar",
    "latitude": 34.56528,
    "longitude": 36.27528,
    "aliases": []
  },
  {
    "name": "El Haissa",
    "city": "Akkar",
    "governorate": "Akkar",
    "latitude": 34.5925,
    "longitude": 36.05389,
    "aliases": ["Al Hisah", "El Heesa", "El Heesah"]
  },
  {
    "name": "El Hedd",
    "city": "Akkar",
    "governorate": "Akkar",
    "latitude": 34.55889,
    "longitude": 36.15861,
    "aliases": []
  },
  {
    "name": "El Hichi",
    "city": "Akkar",
    "governorate": "Akkar",
    "latitude": 34.63667,
    "longitude": 36.3675,
    "aliases": []
  },
  {
    "name": "El Hmaira",
    "city": "Akkar",
    "governorate": "Akkar",
    "latitude": 34.49139,
    "longitude": 36.04861,
    "aliases": ["Al Humayrah", "El Amaira", "Hmaira"]
  },
  {
    "name": "El Houaich",
    "city": "Akkar",
    "governorate": "Akkar",
    "latitude": 34.49861,
    "longitude": 36.11667,
    "aliases": ["Al Huwaysh", "El-Hweish", "Hweish"]
  },
  {
    "name": "El Khirbe",
    "city": "Akkar",
    "governorate": "Akkar",
    "latitude": 34.58806,
    "longitude": 36.01889,
    "aliases": ["Al Khirbah", "El-Hirbi", "Herbi"]
  },
  {
    "name": "El Kneisse",
    "city": "Akkar",
    "governorate": "Akkar",
    "latitude": 34.61833,
    "longitude": 36.02139,
    "aliases": ["Al Knaysah", "El Khnaisse", "El Kneisah"]
  },
  {
    "name": "El Knisse",
    "city": "Akkar",
    "governorate": "Akkar",
    "latitude": 34.56306,
    "longitude": 36.12667,
    "aliases": ["Al Kanisah", "Dahr el Knisse"]
  },
  {
    "name": "El Kouachra",
    "city": "Akkar",
    "governorate": "Akkar",
    "latitude": 34.6125,
    "longitude": 36.20778,
    "aliases": ["Al Kwashrah", "El Kouaichra", "El Kwashrah"]
  },
  {
    "name": "El Krahne",
    "city": "Akkar",
    "governorate": "Akkar",
    "latitude": 34.55944,
    "longitude": 36.12306,
    "aliases": ["Al Knaysah", "Al Kunayyisah", "Al Qarahinah"]
  },
  {
    "name": "El Majdal",
    "city": "Akkar",
    "governorate": "Akkar",
    "latitude": 34.62917,
    "longitude": 36.39556,
    "aliases": []
  },
  {
    "name": "El Majdel",
    "city": "Akkar",
    "governorate": "Akkar",
    "latitude": 34.57083,
    "longitude": 36.21556,
    "aliases": ["Al Majdal"]
  },
  {
    "name": "El Massaoudiye",
    "city": "Akkar",
    "governorate": "Akkar",
    "latitude": 34.60583,
    "longitude": 36.04889,
    "aliases": ["Al Musawwadiyah"]
  },
  {
    "name": "El Mazraah",
    "city": "Akkar",
    "governorate": "Akkar",
    "latitude": 34.55833,
    "longitude": 36.15028,
    "aliases": ["El Mazraa"]
  },
  {
    "name": "El Mbar Kiye",
    "city": "Akkar",
    "governorate": "Akkar",
    "latitude": 34.49583,
    "longitude": 36.06861,
    "aliases": ["Al Mubarakiyah"]
  },
  {
    "name": "El Mdiq",
    "city": "Akkar",
    "governorate": "Akkar",
    "latitude": 34.42776,
    "longitude": 35.883,
    "aliases": ["Al Madiq", "almdyq"]
  },
  {
    "name": "El Meghraq",
    "city": "Akkar",
    "governorate": "Akkar",
    "latitude": 34.61028,
    "longitude": 36.01833,
    "aliases": ["Al Mighraq", "El Mighraq", "El Moqraq"]
  },
  {
    "name": "El Melkiye",
    "city": "Akkar",
    "governorate": "Akkar",
    "latitude": 34.53583,
    "longitude": 36.14556,
    "aliases": []
  },
  {
    "name": "El Mhammara",
    "city": "Akkar",
    "governorate": "Akkar",
    "latitude": 34.50444,
    "longitude": 35.97083,
    "aliases": ["Al Muhammarah", "El Mahmra", "El Mouhammara"]
  },
  {
    "name": "El Mounse",
    "city": "Akkar",
    "governorate": "Akkar",
    "latitude": 34.59722,
    "longitude": 36.38722,
    "aliases": ["Al Mu'anasah", "El Mouannasse", "El Mouannse"]
  },
  {
    "name": "El Qantara",
    "city": "Akkar",
    "governorate": "Akkar",
    "latitude": 34.51861,
    "longitude": 36.07111,
    "aliases": ["Al Qantarah", "El Qanntara", "El-Qantarah"]
  },
  {
    "name": "El Qarye",
    "city": "Akkar",
    "governorate": "Akkar",
    "latitude": 34.48083,
    "longitude": 36.15417,
    "aliases": ["El Karie", "El Qraiyate", "Qurayyat"]
  },
  {
    "name": "El Qass",
    "city": "Akkar",
    "governorate": "Akkar",
    "latitude": 34.53722,
    "longitude": 36.21833,
    "aliases": []
  },
  {
    "name": "El Qatlabe",
    "city": "Akkar",
    "governorate": "Akkar",
    "latitude": 34.54444,
    "longitude": 36.28472,
    "aliases": ["Al Qatlabah"]
  },
  {
    "name": "El Qlaiaat",
    "city": "Akkar",
    "governorate": "Akkar",
    "latitude": 34.58222,
    "longitude": 36.01667,
    "aliases": ["El Haut", "El Kulat"]
  },
  {
    "name": "El Qornah",
    "city": "Akkar",
    "governorate": "Akkar",
    "latitude": 34.47722,
    "longitude": 36.17,
    "aliases": ["Al Qurnah"]
  },
  {
    "name": "El Qsair",
    "city": "Akkar",
    "governorate": "Akkar",
    "latitude": 34.60722,
    "longitude": 36.23861,
    "aliases": ["Al Qusayr", "El Qoussair", "El-Qseir"]
  },
  {
    "name": "En Nabi Khaled",
    "city": "Akkar",
    "governorate": "Akkar",
    "latitude": 34.46861,
    "longitude": 36.22139,
    "aliases": ["An Nabi Khalid"]
  },
  {
    "name": "En Nfeisse",
    "city": "Akkar",
    "governorate": "Akkar",
    "latitude": 34.5475,
    "longitude": 36.08667,
    "aliases": ["An Nafisah", "An Nufaysah", "En Nfeisah"]
  },
  {
    "name": "Er Rama",
    "city": "Akkar",
    "governorate": "Akkar",
    "latitude": 34.61917,
    "longitude": 36.37639,
    "aliases": []
  },
  {
    "name": "Er Ransiye",
    "city": "Akkar",
    "governorate": "Akkar",
    "latitude": 34.53083,
    "longitude": 36.02611,
    "aliases": ["Ar Ransiyah", "Er Rannsiye", "Er-Ransiyah"]
  },
  {
    "name": "Er Raouda",
    "city": "Akkar",
    "governorate": "Akkar",
    "latitude": 34.4473,
    "longitude": 35.97942,
    "aliases": ["Ar Rawdah", "alrwdt"]
  },
  {
    "name": "Er Rihaniye",
    "city": "Akkar",
    "governorate": "Akkar",
    "latitude": 34.58389,
    "longitude": 36.11639,
    "aliases": ["Ar Rayhaniyah", "Er-Reehaniyah"]
  },
  {
    "name": "Er Rouaime",
    "city": "Akkar",
    "governorate": "Akkar",
    "latitude": 34.51944,
    "longitude": 36.31639,
    "aliases": ["Ar Ruwaymah", "Er-Rwayme"]
  },
  {
    "name": "Es Sahle",
    "city": "Akkar",
    "governorate": "Akkar",
    "latitude": 34.60417,
    "longitude": 36.34111,
    "aliases": ["As Sahlah", "Es-Sahlah"]
  },
  {
    "name": "Es Sammaqiye",
    "city": "Akkar",
    "governorate": "Akkar",
    "latitude": 34.63944,
    "longitude": 36.00361,
    "aliases": ["As Summaaiyah"]
  },
  {
    "name": "Es Sayed",
    "city": "Akkar",
    "governorate": "Akkar",
    "latitude": 34.50639,
    "longitude": 36.09111,
    "aliases": ["Ain Nouna", "As Sayyid"]
  },
  {
    "name": "Es Sayeh",
    "city": "Akkar",
    "governorate": "Akkar",
    "latitude": 34.515,
    "longitude": 36.245,
    "aliases": []
  },
  {
    "name": "Es Sfine",
    "city": "Akkar",
    "governorate": "Akkar",
    "latitude": 34.57222,
    "longitude": 36.15806,
    "aliases": ["As Safinah", "Es Safine"]
  },
  {
    "name": "Es Smaitat",
    "city": "Akkar",
    "governorate": "Akkar",
    "latitude": 34.65389,
    "longitude": 36.34944,
    "aliases": []
  },
  {
    "name": "Es Souaisse",
    "city": "Akkar",
    "governorate": "Akkar",
    "latitude": 34.55611,
    "longitude": 36.12333,
    "aliases": ["As Suwaysah", "As Suwaysih", "Es-Sweisah"]
  },
  {
    "name": "Esh Shraife",
    "city": "Akkar",
    "governorate": "Akkar",
    "latitude": 34.50028,
    "longitude": 36.14944,
    "aliases": ["Ash Sharifah", "Cherifa", "Chrife"]
  },
  {
    "name": "Et Tleil",
    "city": "Akkar",
    "governorate": "Akkar",
    "latitude": 34.59639,
    "longitude": 36.14111,
    "aliases": ["At Tulayl", "Ett Tlail"]
  },
  {
    "name": "Ez Zire",
    "city": "Akkar",
    "governorate": "Akkar",
    "latitude": 34.54111,
    "longitude": 36.18861,
    "aliases": []
  },
  {
    "name": "Ez Zouarib",
    "city": "Akkar",
    "governorate": "Akkar",
    "latitude": 34.53111,
    "longitude": 36.07,
    "aliases": ["Az Zawarib", "Ez Zwareeb"]
  },
  {
    "name": "Ez Zouq",
    "city": "Akkar",
    "governorate": "Akkar",
    "latitude": 34.54694,
    "longitude": 36.08278,
    "aliases": ["Az Zuq"]
  },
  {
    "name": "Fnaideq",
    "city": "Akkar",
    "governorate": "Akkar",
    "latitude": 34.47667,
    "longitude": 36.1825,
    "aliases": ["Al Fnaydiq", "Al Funaydiq", "Fnediq"]
  },
  {
    "name": "Fsiqin",
    "city": "Akkar",
    "governorate": "Akkar",
    "latitude": 34.58333,
    "longitude": 36.2,
    "aliases": ["El Barde", "Fsakine", "Fseeqeen"]
  },
  {
    "name": "Ghzaile",
    "city": "Akkar",
    "governorate": "Akkar",
    "latitude": 34.59528,
    "longitude": 36.11333,
    "aliases": ["El-Ghzeilah", "Ghuzaylah", "Ghzeilah"]
  },
  {
    "name": "Habchit",
    "city": "Akkar",
    "governorate": "Akkar",
    "latitude": 34.46778,
    "longitude": 36.08972,
    "aliases": ["Habchite", "Habshit"]
  },
  {
    "name": "Haitla",
    "city": "Akkar",
    "governorate": "Akkar",
    "latitude": 34.60306,
    "longitude": 36.13361,
    "aliases": ["Haitala", "Haytlah", "Heitla"]
  },
  {
    "name": "Haizouq",
    "city": "Akkar",
    "governorate": "Akkar",
    "latitude": 34.54806,
    "longitude": 36.12778,
    "aliases": ["Hayzuq", "Heizouq"]
  },
  {
    "name": "Hakour",
    "city": "Akkar",
    "governorate": "Akkar",
    "latitude": 34.52611,
    "longitude": 36.05611,
    "aliases": ["Aakkour", "Al Hakur", "El-Hakour"]
  },
  {
    "name": "Halba",
    "city": "Akkar",
    "governorate": "Akkar",
    "latitude": 34.54278,
    "longitude": 36.07972,
    "aliases": ["Aakar", "Akkar", "Halbe"]
  },
  {
    "name": "Haouchab",
    "city": "Akkar",
    "governorate": "Akkar",
    "latitude": 34.58722,
    "longitude": 36.10417,
    "aliases": ["El-Haushab", "Haushab", "Hawshab"]
  },
  {
    "name": "Haret ej Jdide",
    "city": "Akkar",
    "governorate": "Akkar",
    "latitude": 34.57639,
    "longitude": 36.01917,
    "aliases": ["Harat al Jadidah"]
  },
  {
    "name": "Haret ej Jwaiq",
    "city": "Akkar",
    "governorate": "Akkar",
    "latitude": 34.53472,
    "longitude": 36.20583,
    "aliases": []
  },
  {
    "name": "Haret en Namous",
    "city": "Akkar",
    "governorate": "Akkar",
    "latitude": 34.5175,
    "longitude": 36.3125,
    "aliases": []
  },
  {
    "name": "Haret esh Sharqiye",
    "city": "Akkar",
    "governorate": "Akkar",
    "latitude": 34.57889,
    "longitude": 36.28083,
    "aliases": ["Sakaki"]
  },
  {
    "name": "Harf as Sim",
    "city": "Akkar",
    "governorate": "Akkar",
    "latitude": 34.56667,
    "longitude": 36.21667,
    "aliases": ["Harf es Sam", "Harf es Sim"]
  },
  {
    "name": "Hikr Janine",
    "city": "Akkar",
    "governorate": "Akkar",
    "latitude": 34.63611,
    "longitude": 36.13056,
    "aliases": ["Hikr Janeen", "Hukr Janin"]
  },
  {
    "name": "Hmais",
    "city": "Akkar",
    "governorate": "Akkar",
    "latitude": 34.57444,
    "longitude": 36.12722,
    "aliases": ["Hmays", "Hmees", "Hoummaiss"]
  },
  {
    "name": "Hnaider",
    "city": "Akkar",
    "governorate": "Akkar",
    "latitude": 34.61556,
    "longitude": 36.42861,
    "aliases": ["Henaider", "Hnayder", "Hneidir"]
  },
  {
    "name": "Hokr ech Cheikh Taba",
    "city": "Akkar",
    "governorate": "Akkar",
    "latitude": 34.53917,
    "longitude": 36.07583,
    "aliases": ["Hukr ash Shaykh Taba"]
  },
  {
    "name": "Hokr ed Dahri",
    "city": "Akkar",
    "governorate": "Akkar",
    "latitude": 34.63056,
    "longitude": 36.02306,
    "aliases": ["Hekr ed Dahri", "Hikr ed-Dahiri", "Hukr ad Dahiri"]
  },
  {
    "name": "Hokr el Haissa",
    "city": "Akkar",
    "governorate": "Akkar",
    "latitude": 34.59639,
    "longitude": 36.05472,
    "aliases": ["El Aakkar", "Hikr el-Heesa", "Hukr al Hisah"]
  },
  {
    "name": "Hokr el Kousse",
    "city": "Akkar",
    "governorate": "Akkar",
    "latitude": 34.59222,
    "longitude": 36.02806,
    "aliases": ["Hekr el Koussa", "Hukr al Kusa"]
  },
  {
    "name": "Hokr Etti",
    "city": "Akkar",
    "governorate": "Akkar",
    "latitude": 34.57417,
    "longitude": 36.09944,
    "aliases": ["hkr aty"]
  },
  {
    "name": "Hokr Jouret Srar",
    "city": "Akkar",
    "governorate": "Akkar",
    "latitude": 34.62722,
    "longitude": 36.10583,
    "aliases": ["Hukr Jurat Srar"]
  },
  {
    "name": "Hrar",
    "city": "Akkar",
    "governorate": "Akkar",
    "latitude": 34.45722,
    "longitude": 36.12167,
    "aliases": []
  },
  {
    "name": "Idbil",
    "city": "Akkar",
    "governorate": "Akkar",
    "latitude": 34.535,
    "longitude": 36.09639,
    "aliases": ["Aadbel"]
  },
  {
    "name": "Ilat",
    "city": "Akkar",
    "governorate": "Akkar",
    "latitude": 34.51917,
    "longitude": 36.10972,
    "aliases": ["Aayate", "Eelat"]
  },
  {
    "name": "Janine",
    "city": "Akkar",
    "governorate": "Akkar",
    "latitude": 34.62861,
    "longitude": 36.14611,
    "aliases": ["Janeen", "Janin"]
  },
  {
    "name": "Jdaidet el Qaitaa",
    "city": "Akkar",
    "governorate": "Akkar",
    "latitude": 34.46583,
    "longitude": 36.01167,
    "aliases": ["El Jdaide", "Jdaide", "Jdaidet el Qaiteaa"]
  },
  {
    "name": "Jdeide",
    "city": "Akkar",
    "governorate": "Akkar",
    "latitude": 34.60417,
    "longitude": 36.28278,
    "aliases": ["Al Judaydah", "El-Jdeidah", "Jdaide"]
  },
  {
    "name": "Jebrayel",
    "city": "Akkar",
    "governorate": "Akkar",
    "latitude": 34.52167,
    "longitude": 36.13083,
    "aliases": ["Gebrayel", "Jebraye", "Jibra'il"]
  },
  {
    "name": "Jichet Aali Houssein",
    "city": "Akkar",
    "governorate": "Akkar",
    "latitude": 34.63389,
    "longitude": 36.37472,
    "aliases": []
  },
  {
    "name": "Jouret el Khouri",
    "city": "Akkar",
    "governorate": "Akkar",
    "latitude": 34.38876,
    "longitude": 36.00082,
    "aliases": ["Jurat al Khuri", "jwrt alkhwry"]
  },
  {
    "name": "Kalkha",
    "city": "Akkar",
    "governorate": "Akkar",
    "latitude": 34.60972,
    "longitude": 36.39167,
    "aliases": []
  },
  {
    "name": "Karm el Aasfour",
    "city": "Akkar",
    "governorate": "Akkar",
    "latitude": 34.52694,
    "longitude": 36.06111,
    "aliases": []
  },
  {
    "name": "Karm Zebdine",
    "city": "Akkar",
    "governorate": "Akkar",
    "latitude": 34.61833,
    "longitude": 36.35778,
    "aliases": []
  },
  {
    "name": "Kfar Harra",
    "city": "Akkar",
    "governorate": "Akkar",
    "latitude": 34.55944,
    "longitude": 36.13722,
    "aliases": ["Kafr Harrah"]
  },
  {
    "name": "Kfar Melki",
    "city": "Akkar",
    "governorate": "Akkar",
    "latitude": 34.55306,
    "longitude": 36.01944,
    "aliases": ["Kafr Milki"]
  },
  {
    "name": "Kfar Noun",
    "city": "Akkar",
    "governorate": "Akkar",
    "latitude": 34.625,
    "longitude": 36.25306,
    "aliases": ["Kafr Nun"]
  },
  {
    "name": "Kfar Toun",
    "city": "Akkar",
    "governorate": "Akkar",
    "latitude": 34.55833,
    "longitude": 36.35917,
    "aliases": ["Kafr Tun"]
  },
  {
    "name": "Khalsa",
    "city": "Akkar",
    "governorate": "Akkar",
    "latitude": 34.63333,
    "longitude": 36.31278,
    "aliases": ["Al Khalisah", "El-Khalsah"]
  },
  {
    "name": "Khane Hayat",
    "city": "Akkar",
    "governorate": "Akkar",
    "latitude": 34.56833,
    "longitude": 36.00722,
    "aliases": ["Khan Hayyat"]
  },
  {
    "name": "Khawja Bustan",
    "city": "Akkar",
    "governorate": "Akkar",
    "latitude": 34.61667,
    "longitude": 36.3,
    "aliases": []
  },
  {
    "name": "Khirbat al Jurd",
    "city": "Akkar",
    "governorate": "Akkar",
    "latitude": 34.48333,
    "longitude": 36.13333,
    "aliases": []
  },
  {
    "name": "Khirbet Daoud",
    "city": "Akkar",
    "governorate": "Akkar",
    "latitude": 34.5875,
    "longitude": 36.22194,
    "aliases": ["Khirbat Dawud"]
  },
  {
    "name": "Khirbet er Roummane",
    "city": "Akkar",
    "governorate": "Akkar",
    "latitude": 34.62667,
    "longitude": 36.28917,
    "aliases": ["Khirbat ar Rumman"]
  },
  {
    "name": "Khirbet Shar",
    "city": "Akkar",
    "governorate": "Akkar",
    "latitude": 34.58083,
    "longitude": 36.18806,
    "aliases": ["Khirbat Shar"]
  },
  {
    "name": "Khreibet ej Jindi",
    "city": "Akkar",
    "governorate": "Akkar",
    "latitude": 34.55833,
    "longitude": 36.09667,
    "aliases": ["Khuraybat al Jundi"]
  },
  {
    "name": "Knaisse",
    "city": "Akkar",
    "governorate": "Akkar",
    "latitude": 34.60111,
    "longitude": 36.44028,
    "aliases": []
  },
  {
    "name": "Kouaikhat",
    "city": "Akkar",
    "governorate": "Akkar",
    "latitude": 34.575,
    "longitude": 36.08972,
    "aliases": ["El-Kweikhat", "Kuwaykhat"]
  },
  {
    "name": "Koucha",
    "city": "Akkar",
    "governorate": "Akkar",
    "latitude": 34.56083,
    "longitude": 36.10111,
    "aliases": ["Kusha"]
  },
  {
    "name": "Kraibe",
    "city": "Akkar",
    "governorate": "Akkar",
    "latitude": 34.47833,
    "longitude": 36.1275,
    "aliases": ["Al Khuraybah"]
  },
  {
    "name": "Kroum Aarab",
    "city": "Akkar",
    "governorate": "Akkar",
    "latitude": 34.555,
    "longitude": 36.09333,
    "aliases": []
  },
  {
    "name": "Machha",
    "city": "Akkar",
    "governorate": "Akkar",
    "latitude": 34.54028,
    "longitude": 36.11556,
    "aliases": ["Mashha"]
  },
  {
    "name": "Machta Hammoud",
    "city": "Akkar",
    "governorate": "Akkar",
    "latitude": 34.63278,
    "longitude": 36.32778,
    "aliases": ["Mashta Hammud"]
  },
  {
    "name": "Machta Hassan",
    "city": "Akkar",
    "governorate": "Akkar",
    "latitude": 34.62306,
    "longitude": 36.32389,
    "aliases": ["Mashta Hasan"]
  },
  {
    "name": "Mafraq Abou Rghif",
    "city": "Akkar",
    "governorate": "Akkar",
    "latitude": 34.52278,
    "longitude": 36.00889,
    "aliases": ["Mafraq Abu Raghif"]
  },
  {
    "name": "Majdala",
    "city": "Akkar",
    "governorate": "Akkar",
    "latitude": 34.49806,
    "longitude": 36.03722,
    "aliases": []
  },
  {
    "name": "Mar Sarkis",
    "city": "Akkar",
    "governorate": "Akkar",
    "latitude": 34.54028,
    "longitude": 36.17583,
    "aliases": []
  },
  {
    "name": "Mar Touma",
    "city": "Akkar",
    "governorate": "Akkar",
    "latitude": 34.51222,
    "longitude": 36.02806,
    "aliases": ["Mar Tuma"]
  },
  {
    "name": "Marlayet Haddara",
    "city": "Akkar",
    "governorate": "Akkar",
    "latitude": 34.54083,
    "longitude": 36.03306,
    "aliases": ["Al Mushaylihah", "El Mchailha", "El-Msheilhah"]
  },
  {
    "name": "Martmoura",
    "city": "Akkar",
    "governorate": "Akkar",
    "latitude": 34.57917,
    "longitude": 36.27639,
    "aliases": ["Mar Tmura"]
  },
  {
    "name": "Matahene es Sabaa",
    "city": "Akkar",
    "governorate": "Akkar",
    "latitude": 34.51333,
    "longitude": 36.06861,
    "aliases": []
  },
  {
    "name": "Mathanet ed Delbe",
    "city": "Akkar",
    "governorate": "Akkar",
    "latitude": 34.53222,
    "longitude": 36.03556,
    "aliases": ["Aarka", "Aarqa", "Arka"]
  },
  {
    "name": "Mathanet ej Jaaidiye",
    "city": "Akkar",
    "governorate": "Akkar",
    "latitude": 34.56861,
    "longitude": 36.08833,
    "aliases": []
  },
  {
    "name": "Mazra'at Habshit",
    "city": "Akkar",
    "governorate": "Akkar",
    "latitude": 34.48333,
    "longitude": 36.11667,
    "aliases": []
  },
  {
    "name": "Mazraat el Ghattas",
    "city": "Akkar",
    "governorate": "Akkar",
    "latitude": 34.52361,
    "longitude": 36.06306,
    "aliases": ["Beit Ghattas"]
  },
  {
    "name": "Meghraqa",
    "city": "Akkar",
    "governorate": "Akkar",
    "latitude": 34.60167,
    "longitude": 36.27583,
    "aliases": ["Mighraqah"]
  },
  {
    "name": "Memnaa",
    "city": "Akkar",
    "governorate": "Akkar",
    "latitude": 34.50139,
    "longitude": 36.1775,
    "aliases": []
  },
  {
    "name": "Michmich",
    "city": "Akkar",
    "governorate": "Akkar",
    "latitude": 34.47222,
    "longitude": 36.17056,
    "aliases": ["Mishmish"]
  },
  {
    "name": "Miniara",
    "city": "Akkar",
    "governorate": "Akkar",
    "latitude": 34.53194,
    "longitude": 36.05972,
    "aliases": ["Minyarah"]
  },
  {
    "name": "Mounjez",
    "city": "Akkar",
    "governorate": "Akkar",
    "latitude": 34.61528,
    "longitude": 36.24583,
    "aliases": ["Munjiz"]
  },
  {
    "name": "Mqaible",
    "city": "Akkar",
    "governorate": "Akkar",
    "latitude": 34.64361,
    "longitude": 36.35278,
    "aliases": ["Al Muqaybilah", "El-Mqayble", "El-Mqeiblah"]
  },
  {
    "name": "Mrah Aakkar",
    "city": "Akkar",
    "governorate": "Akkar",
    "latitude": 34.54639,
    "longitude": 36.23889,
    "aliases": ["El-Mrahat"]
  },
  {
    "name": "Mrah Bou Zaid",
    "city": "Akkar",
    "governorate": "Akkar",
    "latitude": 34.5025,
    "longitude": 36.33139,
    "aliases": []
  },
  {
    "name": "Mrah el Aainouni",
    "city": "Akkar",
    "governorate": "Akkar",
    "latitude": 34.50111,
    "longitude": 36.0925,
    "aliases": ["Aaoumar ed Dine", "Amar ed Dine"]
  },
  {
    "name": "Mrah el Aallayq",
    "city": "Akkar",
    "governorate": "Akkar",
    "latitude": 34.55333,
    "longitude": 36.36417,
    "aliases": []
  },
  {
    "name": "Mrah el Bsatine",
    "city": "Akkar",
    "governorate": "Akkar",
    "latitude": 34.575,
    "longitude": 36.34778,
    "aliases": ["Marah al Basatin"]
  },
  {
    "name": "Mrah el Khaoukh",
    "city": "Akkar",
    "governorate": "Akkar",
    "latitude": 34.58722,
    "longitude": 36.35472,
    "aliases": ["Marah al Khawkh"]
  },
  {
    "name": "Mrah es Sous",
    "city": "Akkar",
    "governorate": "Akkar",
    "latitude": 34.53917,
    "longitude": 36.37639,
    "aliases": []
  },
  {
    "name": "Mrah Khirbet Halouas",
    "city": "Akkar",
    "governorate": "Akkar",
    "latitude": 34.5725,
    "longitude": 36.39306,
    "aliases": []
  },
  {
    "name": "Msalla",
    "city": "Akkar",
    "governorate": "Akkar",
    "latitude": 34.59167,
    "longitude": 36.15972,
    "aliases": ["Al Musalla", "El Moussailha"]
  },
  {
    "name": "Mzeihme",
    "city": "Akkar",
    "governorate": "Akkar",
    "latitude": 34.60806,
    "longitude": 36.14472,
    "aliases": ["El Mzahmah", "Mzayhimah"]
  },
  {
    "name": "Nabaa el Ghzaile",
    "city": "Akkar",
    "governorate": "Akkar",
    "latitude": 34.59333,
    "longitude": 36.10417,
    "aliases": []
  },
  {
    "name": "Nabi Younis",
    "city": "Akkar",
    "governorate": "Akkar",
    "latitude": 34.47167,
    "longitude": 36.14806,
    "aliases": ["An Nabi Yunus"]
  },
  {
    "name": "Nahriye",
    "city": "Akkar",
    "governorate": "Akkar",
    "latitude": 34.60056,
    "longitude": 36.27139,
    "aliases": ["An Nahriyah", "En Nahriyah", "En-Nahriyye"]
  },
  {
    "name": "Nasriye",
    "city": "Akkar",
    "governorate": "Akkar",
    "latitude": 34.67889,
    "longitude": 36.3325,
    "aliases": ["An Nasiriyah", "En-Nasriyye"]
  },
  {
    "name": "Noura el Faouqa",
    "city": "Akkar",
    "governorate": "Akkar",
    "latitude": 34.62056,
    "longitude": 36.18444,
    "aliases": ["Nurat al Fawqa"]
  },
  {
    "name": "Noura el Tahta",
    "city": "Akkar",
    "governorate": "Akkar",
    "latitude": 34.62611,
    "longitude": 36.18556,
    "aliases": ["Nurat at Tahta"]
  },
  {
    "name": "Ouadi ej Jamous",
    "city": "Akkar",
    "governorate": "Akkar",
    "latitude": 34.50111,
    "longitude": 36.01694,
    "aliases": ["Wadi al Jamus"]
  },
  {
    "name": "Ouadi el Haour",
    "city": "Akkar",
    "governorate": "Akkar",
    "latitude": 34.60944,
    "longitude": 36.15472,
    "aliases": ["Beit el-Haush", "El Haouch", "Wadi al Hawr"]
  },
  {
    "name": "Qaabrine",
    "city": "Akkar",
    "governorate": "Akkar",
    "latitude": 34.56778,
    "longitude": 36.03333,
    "aliases": []
  },
  {
    "name": "Qabaait",
    "city": "Akkar",
    "governorate": "Akkar",
    "latitude": 34.44889,
    "longitude": 36.09694,
    "aliases": []
  },
  {
    "name": "Qachlaq",
    "city": "Akkar",
    "governorate": "Akkar",
    "latitude": 34.61722,
    "longitude": 36.155,
    "aliases": ["Qushluq"]
  },
  {
    "name": "Qal'at al Burj",
    "city": "Akkar",
    "governorate": "Akkar",
    "latitude": 34.61667,
    "longitude": 36.36667,
    "aliases": []
  },
  {
    "name": "Qal'at Nusayr an Nimr",
    "city": "Akkar",
    "governorate": "Akkar",
    "latitude": 34.51667,
    "longitude": 36.23333,
    "aliases": []
  },
  {
    "name": "Qarha",
    "city": "Akkar",
    "governorate": "Akkar",
    "latitude": 34.62194,
    "longitude": 36.44528,
    "aliases": []
  },
  {
    "name": "Qarqaf",
    "city": "Akkar",
    "governorate": "Akkar",
    "latitude": 34.48472,
    "longitude": 36.02056,
    "aliases": []
  },
  {
    "name": "Qbaiyat",
    "city": "Akkar",
    "governorate": "Akkar",
    "latitude": 34.57083,
    "longitude": 36.28111,
    "aliases": ["Al Qbayyat"]
  },
  {
    "name": "Qbaiyat el Gharbiye",
    "city": "Akkar",
    "governorate": "Akkar",
    "latitude": 34.57972,
    "longitude": 36.26,
    "aliases": ["Qubayyat al Bharbiyah"]
  },
  {
    "name": "Qboula",
    "city": "Akkar",
    "governorate": "Akkar",
    "latitude": 34.535,
    "longitude": 36.18139,
    "aliases": []
  },
  {
    "name": "Qenia",
    "city": "Akkar",
    "governorate": "Akkar",
    "latitude": 34.58583,
    "longitude": 36.36667,
    "aliases": ["Qinya"]
  },
  {
    "name": "Qloud el Baqie",
    "city": "Akkar",
    "governorate": "Akkar",
    "latitude": 34.49694,
    "longitude": 36.06,
    "aliases": ["Qulud al Baqiyah"]
  },
  {
    "name": "Qoubaiyat",
    "city": "Akkar",
    "governorate": "Akkar",
    "latitude": 34.56667,
    "longitude": 36.28333,
    "aliases": ["Al Qubayyat", "Kobayat"]
  },
  {
    "name": "Qoubbet Chamra",
    "city": "Akkar",
    "governorate": "Akkar",
    "latitude": 34.5425,
    "longitude": 36.0075,
    "aliases": ["KOBET CHAMRA", "Qubbat Shamra"]
  },
  {
    "name": "Rahbe",
    "city": "Akkar",
    "governorate": "Akkar",
    "latitude": 34.50528,
    "longitude": 36.145,
    "aliases": ["Ar Rahbah", "Rahbah"]
  },
  {
    "name": "Rejm Beit Houssein",
    "city": "Akkar",
    "governorate": "Akkar",
    "latitude": 34.60639,
    "longitude": 36.38361,
    "aliases": []
  },
  {
    "name": "Rejm Beit Khalaf",
    "city": "Akkar",
    "governorate": "Akkar",
    "latitude": 34.61944,
    "longitude": 36.39056,
    "aliases": []
  },
  {
    "name": "Rmah",
    "city": "Akkar",
    "governorate": "Akkar",
    "latitude": 34.62306,
    "longitude": 36.265,
    "aliases": ["Ar Rimmah", "Er-Rimmah"]
  },
  {
    "name": "Saadine",
    "city": "Akkar",
    "governorate": "Akkar",
    "latitude": 34.59667,
    "longitude": 36.09139,
    "aliases": []
  },
  {
    "name": "Saidnaya",
    "city": "Akkar",
    "governorate": "Akkar",
    "latitude": 34.58972,
    "longitude": 36.12389,
    "aliases": ["Saydnaya"]
  },
  {
    "name": "Saissouq",
    "city": "Akkar",
    "governorate": "Akkar",
    "latitude": 34.48889,
    "longitude": 36.05222,
    "aliases": ["Saysuq"]
  },
  {
    "name": "Saoualha",
    "city": "Akkar",
    "governorate": "Akkar",
    "latitude": 34.61972,
    "longitude": 36.38389,
    "aliases": []
  },
  {
    "name": "Sbagha",
    "city": "Akkar",
    "governorate": "Akkar",
    "latitude": 34.52667,
    "longitude": 36.13194,
    "aliases": []
  },
  {
    "name": "Sfainet el Qaitaa",
    "city": "Akkar",
    "governorate": "Akkar",
    "latitude": 34.46139,
    "longitude": 36.02889,
    "aliases": ["Es Sfine", "Es Soufaine"]
  },
  {
    "name": "Shanbouq",
    "city": "Akkar",
    "governorate": "Akkar",
    "latitude": 34.5225,
    "longitude": 36.28611,
    "aliases": ["Ash Shambuq", "Chambouq", "Chamouq"]
  },
  {
    "name": "Shaqdouf",
    "city": "Akkar",
    "governorate": "Akkar",
    "latitude": 34.52889,
    "longitude": 36.18972,
    "aliases": ["Ash Shaqduf", "Chaqdouf", "Ech Chaqdouf"]
  },
  {
    "name": "Shaqdouf Aakkar",
    "city": "Akkar",
    "governorate": "Akkar",
    "latitude": 34.52389,
    "longitude": 36.21806,
    "aliases": ["Chaqdouf Aakkar"]
  },
  {
    "name": "Shattaha",
    "city": "Akkar",
    "governorate": "Akkar",
    "latitude": 34.53333,
    "longitude": 36.17111,
    "aliases": ["Beit ech Chataha", "Shittahah"]
  },
  {
    "name": "Sindianet Zeidane",
    "city": "Akkar",
    "governorate": "Akkar",
    "latitude": 34.57694,
    "longitude": 36.24472,
    "aliases": ["Sindiyanat Raydan"]
  },
  {
    "name": "Srar",
    "city": "Akkar",
    "governorate": "Akkar",
    "latitude": 34.61667,
    "longitude": 36.13333,
    "aliases": []
  },
  {
    "name": "Tachaa",
    "city": "Akkar",
    "governorate": "Akkar",
    "latitude": 34.49806,
    "longitude": 36.18806,
    "aliases": []
  },
  {
    "name": "Tall al Hayyat",
    "city": "Akkar",
    "governorate": "Akkar",
    "latitude": 34.56667,
    "longitude": 36,
    "aliases": []
  },
  {
    "name": "Tallet el Mjabber",
    "city": "Akkar",
    "governorate": "Akkar",
    "latitude": 34.57861,
    "longitude": 36.07889,
    "aliases": ["Tallat al Mujabbir"]
  },
  {
    "name": "Tallet ez Zefir",
    "city": "Akkar",
    "governorate": "Akkar",
    "latitude": 34.57556,
    "longitude": 36.08333,
    "aliases": ["Tallat az Zafir"]
  },
  {
    "name": "Tekrit",
    "city": "Akkar",
    "governorate": "Akkar",
    "latitude": 34.51917,
    "longitude": 36.15722,
    "aliases": ["Tikrit"]
  },
  {
    "name": "Tell Aabbas ech Charqi",
    "city": "Akkar",
    "governorate": "Akkar",
    "latitude": 34.58833,
    "longitude": 36.07917,
    "aliases": []
  },
  {
    "name": "Tell Aabbas el Gharbi",
    "city": "Akkar",
    "governorate": "Akkar",
    "latitude": 34.58361,
    "longitude": 36.0775,
    "aliases": []
  },
  {
    "name": "Tell Bibi",
    "city": "Akkar",
    "governorate": "Akkar",
    "latitude": 34.61722,
    "longitude": 36.00667,
    "aliases": ["Tall Bibi"]
  },
  {
    "name": "Tell Biri",
    "city": "Akkar",
    "governorate": "Akkar",
    "latitude": 34.62306,
    "longitude": 36.05833,
    "aliases": ["Tall Birah"]
  },
  {
    "name": "Tell Hmaira",
    "city": "Akkar",
    "governorate": "Akkar",
    "latitude": 34.6275,
    "longitude": 36.07667,
    "aliases": ["Tall Humayrah"]
  },
  {
    "name": "Tell Kindi",
    "city": "Akkar",
    "governorate": "Akkar",
    "latitude": 34.61139,
    "longitude": 36.07361,
    "aliases": ["Tall Kindi"]
  },
  {
    "name": "Tell Kindi es Sghir",
    "city": "Akkar",
    "governorate": "Akkar",
    "latitude": 34.60333,
    "longitude": 36.07611,
    "aliases": ["Tall Kindi as Saghir"]
  },
  {
    "name": "Tell Kiri",
    "city": "Akkar",
    "governorate": "Akkar",
    "latitude": 34.59778,
    "longitude": 36.03861,
    "aliases": ["Tall Kari", "Tall Kirri"]
  },
  {
    "name": "Tell Sebael",
    "city": "Akkar",
    "governorate": "Akkar",
    "latitude": 34.55028,
    "longitude": 36.03,
    "aliases": []
  },
  {
    "name": "Zaqzouq",
    "city": "Akkar",
    "governorate": "Akkar",
    "latitude": 34.45218,
    "longitude": 36.00725,
    "aliases": ["Zaqzuq", "zqzwq"]
  },
  {
    "name": "Zouq el Bacha",
    "city": "Akkar",
    "governorate": "Akkar",
    "latitude": 34.49186,
    "longitude": 35.99763,
    "aliases": ["Zuq al Basha", "zwq albasha"]
  },
  {
    "name": "Zouq el Faouqa",
    "city": "Akkar",
    "governorate": "Akkar",
    "latitude": 34.56889,
    "longitude": 36.28167,
    "aliases": ["Zuq al Fawqa"]
  },
  {
    "name": "Zouq el Hbalsa",
    "city": "Akkar",
    "governorate": "Akkar",
    "latitude": 34.51722,
    "longitude": 36.03944,
    "aliases": ["Zuq al Habalsah"]
  },
  {
    "name": "Zouq el Hosniye",
    "city": "Akkar",
    "governorate": "Akkar",
    "latitude": 34.52111,
    "longitude": 36.03583,
    "aliases": ["Zuq al Hisniyah"]
  },
  {
    "name": "Zouq el Mqachrine",
    "city": "Akkar",
    "governorate": "Akkar",
    "latitude": 34.51917,
    "longitude": 36.02944,
    "aliases": ["Zuq al Muqashshirin"]
  },
  {
    "name": "Zouq et Tahta",
    "city": "Akkar",
    "governorate": "Akkar",
    "latitude": 34.57306,
    "longitude": 36.28111,
    "aliases": ["Zuq at Tahta"]
  },
  {
    "name": "Zouq Haddara",
    "city": "Akkar",
    "governorate": "Akkar",
    "latitude": 34.515,
    "longitude": 36.02972,
    "aliases": ["Zuq Haddarah"]
  },
  {
    "name": "'Ayn Ahilah",
    "city": "Baalbek-Hermel",
    "governorate": "Baalbek-Hermel",
    "latitude": 34.13333,
    "longitude": 36.28333,
    "aliases": ["Ain Ahla"]
  },
  {
    "name": "Aabla",
    "city": "Baalbek-Hermel",
    "governorate": "Baalbek-Hermel",
    "latitude": 34.1525,
    "longitude": 36.27306,
    "aliases": []
  },
  {
    "name": "Aamzit",
    "city": "Baalbek-Hermel",
    "governorate": "Baalbek-Hermel",
    "latitude": 34.22889,
    "longitude": 36.37417,
    "aliases": []
  },
  {
    "name": "Aarsal",
    "city": "Baalbek-Hermel",
    "governorate": "Baalbek-Hermel",
    "latitude": 34.17944,
    "longitude": 36.42083,
    "aliases": []
  },
  {
    "name": "Aayoun Orghoush",
    "city": "Baalbek-Hermel",
    "governorate": "Baalbek-Hermel",
    "latitude": 34.26194,
    "longitude": 36.12944,
    "aliases": ["Aayoun Ar'rhouch", "Aayoun Orghouch", "Ayoun Ar'rhouch"]
  },
  {
    "name": "Ain Bourdai",
    "city": "Baalbek-Hermel",
    "governorate": "Baalbek-Hermel",
    "latitude": 33.99083,
    "longitude": 36.20139,
    "aliases": ["Ain Bourai"]
  },
  {
    "name": "Ain el Bounaya",
    "city": "Baalbek-Hermel",
    "governorate": "Baalbek-Hermel",
    "latitude": 33.91139,
    "longitude": 36.22667,
    "aliases": ["Ain Bounaya"]
  },
  {
    "name": "Ainata",
    "city": "Baalbek-Hermel",
    "governorate": "Baalbek-Hermel",
    "latitude": 34.18694,
    "longitude": 36.08111,
    "aliases": []
  },
  {
    "name": "Al Qantarah",
    "city": "Baalbek-Hermel",
    "governorate": "Baalbek-Hermel",
    "latitude": 34.38757,
    "longitude": 36.18413,
    "aliases": ["alqntrt"]
  },
  {
    "name": "Al Quraytah",
    "city": "Baalbek-Hermel",
    "governorate": "Baalbek-Hermel",
    "latitude": 34.37351,
    "longitude": 36.24379,
    "aliases": ["alqrytt"]
  },
  {
    "name": "Baalbek",
    "city": "Baalbek-Hermel",
    "governorate": "Baalbek-Hermel",
    "latitude": 34.00583,
    "longitude": 36.21806,
    "aliases": ["Baal'bek", "Baalbeck", "Baalbekas"]
  },
  {
    "name": "Barqa",
    "city": "Baalbek-Hermel",
    "governorate": "Baalbek-Hermel",
    "latitude": 34.17111,
    "longitude": 36.1425,
    "aliases": []
  },
  {
    "name": "Bayader",
    "city": "Baalbek-Hermel",
    "governorate": "Baalbek-Hermel",
    "latitude": 34.38722,
    "longitude": 36.39278,
    "aliases": []
  },
  {
    "name": "Bayt al Hajj Husayn",
    "city": "Baalbek-Hermel",
    "governorate": "Baalbek-Hermel",
    "latitude": 34.36986,
    "longitude": 36.2074,
    "aliases": ["byt alhaj hsyn"]
  },
  {
    "name": "Bayt Hayrah",
    "city": "Baalbek-Hermel",
    "governorate": "Baalbek-Hermel",
    "latitude": 34.43333,
    "longitude": 36.46667,
    "aliases": []
  },
  {
    "name": "Bayt Mubarak",
    "city": "Baalbek-Hermel",
    "governorate": "Baalbek-Hermel",
    "latitude": 33.83333,
    "longitude": 36.08333,
    "aliases": ["Beit Moubarak"]
  },
  {
    "name": "Bdaita",
    "city": "Baalbek-Hermel",
    "governorate": "Baalbek-Hermel",
    "latitude": 34.39056,
    "longitude": 36.37972,
    "aliases": []
  },
  {
    "name": "Bechouat",
    "city": "Baalbek-Hermel",
    "governorate": "Baalbek-Hermel",
    "latitude": 34.15028,
    "longitude": 36.13472,
    "aliases": ["Bshawat"]
  },
  {
    "name": "Bednayel",
    "city": "Baalbek-Hermel",
    "governorate": "Baalbek-Hermel",
    "latitude": 33.91889,
    "longitude": 36.00528,
    "aliases": ["Beit Nail", "Bidnayil"]
  },
  {
    "name": "Beit Aallam",
    "city": "Baalbek-Hermel",
    "governorate": "Baalbek-Hermel",
    "latitude": 34.38694,
    "longitude": 36.24167,
    "aliases": []
  },
  {
    "name": "Beit Aallaou",
    "city": "Baalbek-Hermel",
    "governorate": "Baalbek-Hermel",
    "latitude": 34.37778,
    "longitude": 36.23278,
    "aliases": []
  },
  {
    "name": "Beit Chama",
    "city": "Baalbek-Hermel",
    "governorate": "Baalbek-Hermel",
    "latitude": 33.92583,
    "longitude": 36.02306,
    "aliases": ["Bayt Shama", "Beit Shama"]
  },
  {
    "name": "Beit el Haj Hassan",
    "city": "Baalbek-Hermel",
    "governorate": "Baalbek-Hermel",
    "latitude": 34.44528,
    "longitude": 36.50944,
    "aliases": []
  },
  {
    "name": "Beit et Tachm",
    "city": "Baalbek-Hermel",
    "governorate": "Baalbek-Hermel",
    "latitude": 34.42361,
    "longitude": 36.46083,
    "aliases": []
  },
  {
    "name": "Beit et Tfaile",
    "city": "Baalbek-Hermel",
    "governorate": "Baalbek-Hermel",
    "latitude": 34.05167,
    "longitude": 36.23528,
    "aliases": ["Bayt at Tufaylah"]
  },
  {
    "name": "Beit Habchi",
    "city": "Baalbek-Hermel",
    "governorate": "Baalbek-Hermel",
    "latitude": 34.15361,
    "longitude": 36.09861,
    "aliases": ["Bayt Habashi", "El Rhar"]
  },
  {
    "name": "Beit Hassan Hsain",
    "city": "Baalbek-Hermel",
    "governorate": "Baalbek-Hermel",
    "latitude": 34.32556,
    "longitude": 36.30667,
    "aliases": ["Bayt Hasan Husayn"]
  },
  {
    "name": "Beit Midlij",
    "city": "Baalbek-Hermel",
    "governorate": "Baalbek-Hermel",
    "latitude": 34.21583,
    "longitude": 36.24611,
    "aliases": ["Bayt Mudlij"]
  },
  {
    "name": "Bessailet el Faouqa",
    "city": "Baalbek-Hermel",
    "governorate": "Baalbek-Hermel",
    "latitude": 34.13444,
    "longitude": 36.12,
    "aliases": ["Busaylat al Fawqa"]
  },
  {
    "name": "Bessailet et Tahta",
    "city": "Baalbek-Hermel",
    "governorate": "Baalbek-Hermel",
    "latitude": 34.13083,
    "longitude": 36.12139,
    "aliases": ["Bsaili", "Busaylat at Tahta"]
  },
  {
    "name": "Biout el Ain",
    "city": "Baalbek-Hermel",
    "governorate": "Baalbek-Hermel",
    "latitude": 34.40417,
    "longitude": 36.24667,
    "aliases": ["Buyut al Qabw", "bywt alqbw"]
  },
  {
    "name": "Blaiqa",
    "city": "Baalbek-Hermel",
    "governorate": "Baalbek-Hermel",
    "latitude": 34.15,
    "longitude": 36.1,
    "aliases": ["Bulayqah"]
  },
  {
    "name": "Boudai",
    "city": "Baalbek-Hermel",
    "governorate": "Baalbek-Hermel",
    "latitude": 34.06111,
    "longitude": 36.06111,
    "aliases": ["Bouday", "Boudaye", "Buda'i"]
  },
  {
    "name": "Boueida",
    "city": "Baalbek-Hermel",
    "governorate": "Baalbek-Hermel",
    "latitude": 34.43639,
    "longitude": 36.41556,
    "aliases": []
  },
  {
    "name": "Braisse",
    "city": "Baalbek-Hermel",
    "governorate": "Baalbek-Hermel",
    "latitude": 34.44361,
    "longitude": 36.31611,
    "aliases": ["Ash Sharbin", "Braysah", "Charbine"]
  },
  {
    "name": "Britel",
    "city": "Baalbek-Hermel",
    "governorate": "Baalbek-Hermel",
    "latitude": 33.93417,
    "longitude": 36.14944,
    "aliases": ["Braytal", "Breetal", "Breitan"]
  },
  {
    "name": "Btedaai",
    "city": "Baalbek-Hermel",
    "governorate": "Baalbek-Hermel",
    "latitude": 34.11222,
    "longitude": 36.10611,
    "aliases": ["Btadi", "Btedai"]
  },
  {
    "name": "Bu Sawaya",
    "city": "Baalbek-Hermel",
    "governorate": "Baalbek-Hermel",
    "latitude": 34.35672,
    "longitude": 36.19337,
    "aliases": ["bw swaya"]
  },
  {
    "name": "Buyut 'Awwad",
    "city": "Baalbek-Hermel",
    "governorate": "Baalbek-Hermel",
    "latitude": 34.37263,
    "longitude": 36.23529,
    "aliases": []
  },
  {
    "name": "Buyut al Hajj Hasan",
    "city": "Baalbek-Hermel",
    "governorate": "Baalbek-Hermel",
    "latitude": 34.38011,
    "longitude": 36.2245,
    "aliases": ["bywt alhaj hsn"]
  },
  {
    "name": "Buyut ar Ruways",
    "city": "Baalbek-Hermel",
    "governorate": "Baalbek-Hermel",
    "latitude": 34.36228,
    "longitude": 36.23736,
    "aliases": ["bywt alrwys"]
  },
  {
    "name": "Chaat",
    "city": "Baalbek-Hermel",
    "governorate": "Baalbek-Hermel",
    "latitude": 34.14222,
    "longitude": 36.23111,
    "aliases": ["Chaate"]
  },
  {
    "name": "Chahout",
    "city": "Baalbek-Hermel",
    "governorate": "Baalbek-Hermel",
    "latitude": 34.39417,
    "longitude": 36.39556,
    "aliases": []
  },
  {
    "name": "Charbine",
    "city": "Baalbek-Hermel",
    "governorate": "Baalbek-Hermel",
    "latitude": 34.45861,
    "longitude": 36.36167,
    "aliases": ["Ash Sharbin", "El Qoua"]
  },
  {
    "name": "Chlifa",
    "city": "Baalbek-Hermel",
    "governorate": "Baalbek-Hermel",
    "latitude": 34.08528,
    "longitude": 36.10028,
    "aliases": ["Shlifa"]
  },
  {
    "name": "Chmistar",
    "city": "Baalbek-Hermel",
    "governorate": "Baalbek-Hermel",
    "latitude": 33.96472,
    "longitude": 36.0175,
    "aliases": ["Chemestar", "Shmistar", "shmstar"]
  },
  {
    "name": "Daouret en Naml",
    "city": "Baalbek-Hermel",
    "governorate": "Baalbek-Hermel",
    "latitude": 34.25889,
    "longitude": 36.27083,
    "aliases": ["Dawrat an Naml", "Dort Namen"]
  },
  {
    "name": "Dar el Ouassaa",
    "city": "Baalbek-Hermel",
    "governorate": "Baalbek-Hermel",
    "latitude": 34.1075,
    "longitude": 36.05778,
    "aliases": ["Deir el Ouassaa"]
  },
  {
    "name": "Deir el Ahmar",
    "city": "Baalbek-Hermel",
    "governorate": "Baalbek-Hermel",
    "latitude": 34.12528,
    "longitude": 36.13111,
    "aliases": ["Dayr al Ahmar", "DeirelAhmar"]
  },
  {
    "name": "Douane",
    "city": "Baalbek-Hermel",
    "governorate": "Baalbek-Hermel",
    "latitude": 34.00111,
    "longitude": 36.19556,
    "aliases": []
  },
  {
    "name": "Douris",
    "city": "Baalbek-Hermel",
    "governorate": "Baalbek-Hermel",
    "latitude": 33.98778,
    "longitude": 36.17917,
    "aliases": ["Douriss", "Duris"]
  },
  {
    "name": "Ech Chmaliye",
    "city": "Baalbek-Hermel",
    "governorate": "Baalbek-Hermel",
    "latitude": 34.18278,
    "longitude": 36.42111,
    "aliases": ["AshShamaliyah", "alshmalyt"]
  },
  {
    "name": "Ech Chraoune",
    "city": "Baalbek-Hermel",
    "governorate": "Baalbek-Hermel",
    "latitude": 34.0125,
    "longitude": 36.20694,
    "aliases": ["Ash Sharawinah"]
  },
  {
    "name": "Ed Dahrat",
    "city": "Baalbek-Hermel",
    "governorate": "Baalbek-Hermel",
    "latitude": 34.06194,
    "longitude": 36.06528,
    "aliases": ["Ad Dahrat"]
  },
  {
    "name": "Ed Daiaa",
    "city": "Baalbek-Hermel",
    "governorate": "Baalbek-Hermel",
    "latitude": 34.39722,
    "longitude": 36.38694,
    "aliases": []
  },
  {
    "name": "Ed Daoura",
    "city": "Baalbek-Hermel",
    "governorate": "Baalbek-Hermel",
    "latitude": 34.4025,
    "longitude": 36.38944,
    "aliases": []
  },
  {
    "name": "Ed Dinnaibe",
    "city": "Baalbek-Hermel",
    "governorate": "Baalbek-Hermel",
    "latitude": 34.21,
    "longitude": 36.32722,
    "aliases": []
  },
  {
    "name": "Ej Jaouz",
    "city": "Baalbek-Hermel",
    "governorate": "Baalbek-Hermel",
    "latitude": 34.46167,
    "longitude": 36.27722,
    "aliases": ["Al Jawz"]
  },
  {
    "name": "El Aaiara",
    "city": "Baalbek-Hermel",
    "governorate": "Baalbek-Hermel",
    "latitude": 34.23861,
    "longitude": 36.11222,
    "aliases": []
  },
  {
    "name": "El Ain",
    "city": "Baalbek-Hermel",
    "governorate": "Baalbek-Hermel",
    "latitude": 34.22583,
    "longitude": 36.37806,
    "aliases": []
  },
  {
    "name": "El Bajjaje",
    "city": "Baalbek-Hermel",
    "governorate": "Baalbek-Hermel",
    "latitude": 34.2275,
    "longitude": 36.35139,
    "aliases": ["Al Bajjajah"]
  },
  {
    "name": "El Balouaa",
    "city": "Baalbek-Hermel",
    "governorate": "Baalbek-Hermel",
    "latitude": 34.25583,
    "longitude": 36.12583,
    "aliases": []
  },
  {
    "name": "El Baqoul",
    "city": "Baalbek-Hermel",
    "governorate": "Baalbek-Hermel",
    "latitude": 34.4175,
    "longitude": 36.33333,
    "aliases": ["Al Buqul", "El Baaoul"]
  },
  {
    "name": "El Barake",
    "city": "Baalbek-Hermel",
    "governorate": "Baalbek-Hermel",
    "latitude": 34.23472,
    "longitude": 36.10694,
    "aliases": ["Al Barakah"]
  },
  {
    "name": "El Barghach",
    "city": "Baalbek-Hermel",
    "governorate": "Baalbek-Hermel",
    "latitude": 34.39222,
    "longitude": 36.30139,
    "aliases": ["Al Barghash"]
  },
  {
    "name": "El Breij",
    "city": "Baalbek-Hermel",
    "governorate": "Baalbek-Hermel",
    "latitude": 34.45639,
    "longitude": 36.38528,
    "aliases": []
  },
  {
    "name": "El Faqrat",
    "city": "Baalbek-Hermel",
    "governorate": "Baalbek-Hermel",
    "latitude": 34.25167,
    "longitude": 36.12306,
    "aliases": ["AlFaqarat", "alfqrat"]
  },
  {
    "name": "El Hadet",
    "city": "Baalbek-Hermel",
    "governorate": "Baalbek-Hermel",
    "latitude": 34.00139,
    "longitude": 36.02833,
    "aliases": ["Al Hadath", "Hadet", "Hadeth"]
  },
  {
    "name": "El Haouz",
    "city": "Baalbek-Hermel",
    "governorate": "Baalbek-Hermel",
    "latitude": 34.09806,
    "longitude": 36.07444,
    "aliases": ["Al Ha'uz"]
  },
  {
    "name": "El Hara",
    "city": "Baalbek-Hermel",
    "governorate": "Baalbek-Hermel",
    "latitude": 34.21,
    "longitude": 36.32139,
    "aliases": ["Al Harah"]
  },
  {
    "name": "El Hefair",
    "city": "Baalbek-Hermel",
    "governorate": "Baalbek-Hermel",
    "latitude": 34.07889,
    "longitude": 36.07111,
    "aliases": ["Al Hafa'ir"]
  },
  {
    "name": "El Hermel",
    "city": "Baalbek-Hermel",
    "governorate": "Baalbek-Hermel",
    "latitude": 34.39417,
    "longitude": 36.38472,
    "aliases": ["Al Harmal", "Al Hirmil", "Hermel"]
  },
  {
    "name": "El Jaouzal",
    "city": "Baalbek-Hermel",
    "governorate": "Baalbek-Hermel",
    "latitude": 34.39528,
    "longitude": 36.38056,
    "aliases": []
  },
  {
    "name": "El Joubaniye",
    "city": "Baalbek-Hermel",
    "governorate": "Baalbek-Hermel",
    "latitude": 34.18194,
    "longitude": 36.18222,
    "aliases": ["Al Jubaniyah"]
  },
  {
    "name": "El Kharayeb",
    "city": "Baalbek-Hermel",
    "governorate": "Baalbek-Hermel",
    "latitude": 34.24056,
    "longitude": 36.30194,
    "aliases": ["Al Khara'ib"]
  },
  {
    "name": "El Khodr",
    "city": "Baalbek-Hermel",
    "governorate": "Baalbek-Hermel",
    "latitude": 33.90417,
    "longitude": 36.12,
    "aliases": ["Al Khidr", "Al Khudr", "El Khodor"]
  },
  {
    "name": "El Khouakh",
    "city": "Baalbek-Hermel",
    "governorate": "Baalbek-Hermel",
    "latitude": 34.46639,
    "longitude": 36.39083,
    "aliases": []
  },
  {
    "name": "El Khraibe",
    "city": "Baalbek-Hermel",
    "governorate": "Baalbek-Hermel",
    "latitude": 33.87111,
    "longitude": 36.16222,
    "aliases": ["Al Khuraybah", "El Rhaibe", "El-Khreibah"]
  },
  {
    "name": "El Laouze",
    "city": "Baalbek-Hermel",
    "governorate": "Baalbek-Hermel",
    "latitude": 33.90278,
    "longitude": 35.99861,
    "aliases": ["Al Lawzah"]
  },
  {
    "name": "El Maaisra",
    "city": "Baalbek-Hermel",
    "governorate": "Baalbek-Hermel",
    "latitude": 34.27667,
    "longitude": 36.29139,
    "aliases": []
  },
  {
    "name": "El Maqassed",
    "city": "Baalbek-Hermel",
    "governorate": "Baalbek-Hermel",
    "latitude": 34.00806,
    "longitude": 36.21222,
    "aliases": ["Al Maqasid"]
  },
  {
    "name": "El Marmagha",
    "city": "Baalbek-Hermel",
    "governorate": "Baalbek-Hermel",
    "latitude": 34.10444,
    "longitude": 36.04889,
    "aliases": ["Al Marmaghah"]
  },
  {
    "name": "El Mdaouich",
    "city": "Baalbek-Hermel",
    "governorate": "Baalbek-Hermel",
    "latitude": 34.39417,
    "longitude": 36.24861,
    "aliases": ["Al Madawish", "almdawsh"]
  },
  {
    "name": "El Moqraq",
    "city": "Baalbek-Hermel",
    "governorate": "Baalbek-Hermel",
    "latitude": 34.17417,
    "longitude": 36.33472,
    "aliases": ["Al Miqraq"]
  },
  {
    "name": "El Ouaqf",
    "city": "Baalbek-Hermel",
    "governorate": "Baalbek-Hermel",
    "latitude": 34.39111,
    "longitude": 36.38722,
    "aliases": []
  },
  {
    "name": "El Qaa",
    "city": "Baalbek-Hermel",
    "governorate": "Baalbek-Hermel",
    "latitude": 34.34417,
    "longitude": 36.47444,
    "aliases": ["El Kaa", "Qaa"]
  },
  {
    "name": "El Qaaqiye",
    "city": "Baalbek-Hermel",
    "governorate": "Baalbek-Hermel",
    "latitude": 34.07472,
    "longitude": 36.08722,
    "aliases": []
  },
  {
    "name": "El Qasr",
    "city": "Baalbek-Hermel",
    "governorate": "Baalbek-Hermel",
    "latitude": 34.48056,
    "longitude": 36.44028,
    "aliases": ["Al Qusayr", "El Qoussair"]
  },
  {
    "name": "El Qerrami",
    "city": "Baalbek-Hermel",
    "governorate": "Baalbek-Hermel",
    "latitude": 34.14194,
    "longitude": 36.10222,
    "aliases": ["Al Qarrami"]
  },
  {
    "name": "El Qobliye",
    "city": "Baalbek-Hermel",
    "governorate": "Baalbek-Hermel",
    "latitude": 34.17694,
    "longitude": 36.4175,
    "aliases": ["AlQibliyah", "alqblyt"]
  },
  {
    "name": "El Quattara",
    "city": "Baalbek-Hermel",
    "governorate": "Baalbek-Hermel",
    "latitude": 34.17417,
    "longitude": 36.17194,
    "aliases": []
  },
  {
    "name": "El Yammoune",
    "city": "Baalbek-Hermel",
    "governorate": "Baalbek-Hermel",
    "latitude": 34.12944,
    "longitude": 36.02694,
    "aliases": ["Al Yammunah"]
  },
  {
    "name": "En Nabi Chbat",
    "city": "Baalbek-Hermel",
    "governorate": "Baalbek-Hermel",
    "latitude": 33.93639,
    "longitude": 36.23528,
    "aliases": ["An Nabi Sbat"]
  },
  {
    "name": "En Nabi Chit",
    "city": "Baalbek-Hermel",
    "governorate": "Baalbek-Hermel",
    "latitude": 33.87306,
    "longitude": 36.11167,
    "aliases": ["Al-Nabi Shayth", "An Nabi Shit", "Nabi Chit"]
  },
  {
    "name": "En Nabi Osmane",
    "city": "Baalbek-Hermel",
    "governorate": "Baalbek-Hermel",
    "latitude": 34.21111,
    "longitude": 36.37278,
    "aliases": []
  },
  {
    "name": "Er Ram",
    "city": "Baalbek-Hermel",
    "governorate": "Baalbek-Hermel",
    "latitude": 34.17306,
    "longitude": 36.18139,
    "aliases": ["Ar Ram", "Er Rame"]
  },
  {
    "name": "Es Sifri",
    "city": "Baalbek-Hermel",
    "governorate": "Baalbek-Hermel",
    "latitude": 33.92139,
    "longitude": 36.07861,
    "aliases": ["As Sifri"]
  },
  {
    "name": "Es Souaidiye",
    "city": "Baalbek-Hermel",
    "governorate": "Baalbek-Hermel",
    "latitude": 34.40583,
    "longitude": 36.24194,
    "aliases": ["As Suwaydiyah", "As Suwaydiyi", "alswydyy"]
  },
  {
    "name": "Et Taybeh",
    "city": "Baalbek-Hermel",
    "governorate": "Baalbek-Hermel",
    "latitude": 33.95833,
    "longitude": 36.16611,
    "aliases": ["At Tayyibah", "Et Teibah", "Ett Taibe"]
  },
  {
    "name": "Ez Zarayeb",
    "city": "Baalbek-Hermel",
    "governorate": "Baalbek-Hermel",
    "latitude": 34.09417,
    "longitude": 36.04639,
    "aliases": ["Az Zara'ib"]
  },
  {
    "name": "Ez Zekbi",
    "city": "Baalbek-Hermel",
    "governorate": "Baalbek-Hermel",
    "latitude": 34.48028,
    "longitude": 36.39417,
    "aliases": []
  },
  {
    "name": "Ez Zire",
    "city": "Baalbek-Hermel",
    "governorate": "Baalbek-Hermel",
    "latitude": 34.23889,
    "longitude": 36.34833,
    "aliases": ["Az Zirah"]
  },
  {
    "name": "Fekehe",
    "city": "Baalbek-Hermel",
    "governorate": "Baalbek-Hermel",
    "latitude": 34.245,
    "longitude": 36.40417,
    "aliases": ["Al Fakyah", "Fakehe", "Fakie"]
  },
  {
    "name": "Fissane",
    "city": "Baalbek-Hermel",
    "governorate": "Baalbek-Hermel",
    "latitude": 34.47611,
    "longitude": 36.34639,
    "aliases": ["Fisan"]
  },
  {
    "name": "Flaoue",
    "city": "Baalbek-Hermel",
    "governorate": "Baalbek-Hermel",
    "latitude": 34.0825,
    "longitude": 36.05694,
    "aliases": ["Flaoui", "Flawah", "Flawi"]
  },
  {
    "name": "Fouar",
    "city": "Baalbek-Hermel",
    "governorate": "Baalbek-Hermel",
    "latitude": 34.00167,
    "longitude": 36.09917,
    "aliases": ["Al Fawwar"]
  },
  {
    "name": "Gend",
    "city": "Baalbek-Hermel",
    "governorate": "Baalbek-Hermel",
    "latitude": 34.18111,
    "longitude": 36.22333,
    "aliases": []
  },
  {
    "name": "Hai ed Daher",
    "city": "Baalbek-Hermel",
    "governorate": "Baalbek-Hermel",
    "latitude": 34.26194,
    "longitude": 36.41806,
    "aliases": ["Hayy ad Dahir", "hy aldahr"]
  },
  {
    "name": "Hai ej Jameaa",
    "city": "Baalbek-Hermel",
    "governorate": "Baalbek-Hermel",
    "latitude": 34.25028,
    "longitude": 36.385,
    "aliases": []
  },
  {
    "name": "Hai el Mathane",
    "city": "Baalbek-Hermel",
    "governorate": "Baalbek-Hermel",
    "latitude": 34.2075,
    "longitude": 36.3225,
    "aliases": ["Hayy al Mathanah"]
  },
  {
    "name": "Halbata",
    "city": "Baalbek-Hermel",
    "governorate": "Baalbek-Hermel",
    "latitude": 34.255,
    "longitude": 36.2875,
    "aliases": ["Harbata", "Hulbta"]
  },
  {
    "name": "Ham",
    "city": "Baalbek-Hermel",
    "governorate": "Baalbek-Hermel",
    "latitude": 33.87361,
    "longitude": 36.20194,
    "aliases": []
  },
  {
    "name": "Haouch Barada",
    "city": "Baalbek-Hermel",
    "governorate": "Baalbek-Hermel",
    "latitude": 34.01111,
    "longitude": 36.12083,
    "aliases": ["Haush Barada", "Hawsh Barada", "Hawsh Bardah"]
  },
  {
    "name": "Haouch Beit Ismail",
    "city": "Baalbek-Hermel",
    "governorate": "Baalbek-Hermel",
    "latitude": 34.45583,
    "longitude": 36.48444,
    "aliases": []
  },
  {
    "name": "Haouch ed Dahab",
    "city": "Baalbek-Hermel",
    "governorate": "Baalbek-Hermel",
    "latitude": 34.02583,
    "longitude": 36.1225,
    "aliases": ["Haouche Dahab", "Haouche ed Dahab", "Hawsh adh Dhahab"]
  },
  {
    "name": "Haouch en Nebi",
    "city": "Baalbek-Hermel",
    "governorate": "Baalbek-Hermel",
    "latitude": 33.93,
    "longitude": 36.06778,
    "aliases": ["Haouch enn Nabi", "Hawsh an Nabi"]
  },
  {
    "name": "Haouch er Rafqa",
    "city": "Baalbek-Hermel",
    "governorate": "Baalbek-Hermel",
    "latitude": 33.91861,
    "longitude": 36.04194,
    "aliases": ["Haouch Rafqa", "Haouche Rafaga", "Haush er-Rafqah"]
  },
  {
    "name": "Haouch Said Aali",
    "city": "Baalbek-Hermel",
    "governorate": "Baalbek-Hermel",
    "latitude": 34.45972,
    "longitude": 36.5,
    "aliases": []
  },
  {
    "name": "Haouch Tell Safiye",
    "city": "Baalbek-Hermel",
    "governorate": "Baalbek-Hermel",
    "latitude": 34.02472,
    "longitude": 36.14,
    "aliases": ["Hawsh Tall Safiyah", "Hawsh Talsafiyah"]
  },
  {
    "name": "Haouchariye",
    "city": "Baalbek-Hermel",
    "governorate": "Baalbek-Hermel",
    "latitude": 34.49528,
    "longitude": 36.39611,
    "aliases": []
  },
  {
    "name": "Haql el Jameaa",
    "city": "Baalbek-Hermel",
    "governorate": "Baalbek-Hermel",
    "latitude": 34.20194,
    "longitude": 36.31222,
    "aliases": []
  },
  {
    "name": "Haql el Mghar",
    "city": "Baalbek-Hermel",
    "governorate": "Baalbek-Hermel",
    "latitude": 34.22222,
    "longitude": 36.34139,
    "aliases": ["Haql al Maghar"]
  },
  {
    "name": "Harbata",
    "city": "Baalbek-Hermel",
    "governorate": "Baalbek-Hermel",
    "latitude": 34.20833,
    "longitude": 36.26389,
    "aliases": []
  },
  {
    "name": "Haret ech Chmaliye",
    "city": "Baalbek-Hermel",
    "governorate": "Baalbek-Hermel",
    "latitude": 34.2275,
    "longitude": 36.38167,
    "aliases": ["HaratashShamaliyah", "hartalshmalyt"]
  },
  {
    "name": "Haret el Faouqa",
    "city": "Baalbek-Hermel",
    "governorate": "Baalbek-Hermel",
    "latitude": 34.24222,
    "longitude": 36.31528,
    "aliases": ["Harat al Fawqa"]
  },
  {
    "name": "Haret el Qobliye",
    "city": "Baalbek-Hermel",
    "governorate": "Baalbek-Hermel",
    "latitude": 34.22389,
    "longitude": 36.3775,
    "aliases": ["HaratalQibliyah", "hartalqblyt"]
  },
  {
    "name": "Harfouch",
    "city": "Baalbek-Hermel",
    "governorate": "Baalbek-Hermel",
    "latitude": 34.2,
    "longitude": 36.245,
    "aliases": ["Marah al Harfush"]
  },
  {
    "name": "Hizzine",
    "city": "Baalbek-Hermel",
    "governorate": "Baalbek-Hermel",
    "latitude": 33.96917,
    "longitude": 36.09472,
    "aliases": ["Hizzeen", "Hizzin"]
  },
  {
    "name": "Hortaala",
    "city": "Baalbek-Hermel",
    "governorate": "Baalbek-Hermel",
    "latitude": 33.91806,
    "longitude": 36.14139,
    "aliases": ["Haour Taala", "Hortale", "Hour Taila"]
  },
  {
    "name": "Hssakta",
    "city": "Baalbek-Hermel",
    "governorate": "Baalbek-Hermel",
    "latitude": 34.24944,
    "longitude": 36.385,
    "aliases": ["Hasakta", "hskta"]
  },
  {
    "name": "Huwwat as Sawh",
    "city": "Baalbek-Hermel",
    "governorate": "Baalbek-Hermel",
    "latitude": 34.34176,
    "longitude": 36.24027,
    "aliases": ["hwt alswh"]
  },
  {
    "name": "Iaat",
    "city": "Baalbek-Hermel",
    "governorate": "Baalbek-Hermel",
    "latitude": 34.03694,
    "longitude": 36.17139,
    "aliases": ["Iaad", "Ya'ad", "Yaad"]
  },
  {
    "name": "Iraniye",
    "city": "Baalbek-Hermel",
    "governorate": "Baalbek-Hermel",
    "latitude": 34.38806,
    "longitude": 36.39583,
    "aliases": []
  },
  {
    "name": "Jameaa Ouadi Zighrine",
    "city": "Baalbek-Hermel",
    "governorate": "Baalbek-Hermel",
    "latitude": 34.42278,
    "longitude": 36.34722,
    "aliases": []
  },
  {
    "name": "Jdaide",
    "city": "Baalbek-Hermel",
    "governorate": "Baalbek-Hermel",
    "latitude": 34.24861,
    "longitude": 36.38778,
    "aliases": ["Al Jdaydah", "Al Judaydah", "Ej Jdaide"]
  },
  {
    "name": "Jebaa",
    "city": "Baalbek-Hermel",
    "governorate": "Baalbek-Hermel",
    "latitude": 34.00806,
    "longitude": 36.04028,
    "aliases": ["Jabaa"]
  },
  {
    "name": "Jenta",
    "city": "Baalbek-Hermel",
    "governorate": "Baalbek-Hermel",
    "latitude": 33.8575,
    "longitude": 36.1075,
    "aliases": ["Janta", "Jennta"]
  },
  {
    "name": "Kafr Dabash",
    "city": "Baalbek-Hermel",
    "governorate": "Baalbek-Hermel",
    "latitude": 33.94528,
    "longitude": 36.03444,
    "aliases": ["Kafr Dabas", "Kafr Dabasch", "Kfar Dabach"]
  },
  {
    "name": "Karm Aaqail",
    "city": "Baalbek-Hermel",
    "governorate": "Baalbek-Hermel",
    "latitude": 34.1425,
    "longitude": 36.22361,
    "aliases": []
  },
  {
    "name": "Ketf Ouadi er Raayane",
    "city": "Baalbek-Hermel",
    "governorate": "Baalbek-Hermel",
    "latitude": 34.15278,
    "longitude": 36.31278,
    "aliases": []
  },
  {
    "name": "Kfardane",
    "city": "Baalbek-Hermel",
    "governorate": "Baalbek-Hermel",
    "latitude": 34.01111,
    "longitude": 36.04639,
    "aliases": ["Kafr Dan"]
  },
  {
    "name": "Kharayeb el Aaqabe",
    "city": "Baalbek-Hermel",
    "governorate": "Baalbek-Hermel",
    "latitude": 34.22,
    "longitude": 36.2775,
    "aliases": []
  },
  {
    "name": "Khirbet et Tine",
    "city": "Baalbek-Hermel",
    "governorate": "Baalbek-Hermel",
    "latitude": 34.23306,
    "longitude": 36.53528,
    "aliases": ["KhirbatatTinah", "khrbtaltynt"]
  },
  {
    "name": "Khirbet Younine",
    "city": "Baalbek-Hermel",
    "governorate": "Baalbek-Hermel",
    "latitude": 34.15722,
    "longitude": 36.49306,
    "aliases": []
  },
  {
    "name": "Khourmata",
    "city": "Baalbek-Hermel",
    "governorate": "Baalbek-Hermel",
    "latitude": 34.09667,
    "longitude": 36.26167,
    "aliases": ["Khurmatah"]
  },
  {
    "name": "Knaisset Ouadi en Naira",
    "city": "Baalbek-Hermel",
    "governorate": "Baalbek-Hermel",
    "latitude": 34.31361,
    "longitude": 36.33222,
    "aliases": ["Kunayyisat Wadi an Na'irah"]
  },
  {
    "name": "Kneisse",
    "city": "Baalbek-Hermel",
    "governorate": "Baalbek-Hermel",
    "latitude": 34.11667,
    "longitude": 36.16389,
    "aliases": ["Al Knaysah", "Al Knaysih", "Al Kunayyisah"]
  },
  {
    "name": "Korraiti",
    "city": "Baalbek-Hermel",
    "governorate": "Baalbek-Hermel",
    "latitude": 34.29389,
    "longitude": 36.31917,
    "aliases": ["Qirraytah"]
  },
  {
    "name": "Laboue",
    "city": "Baalbek-Hermel",
    "governorate": "Baalbek-Hermel",
    "latitude": 34.19528,
    "longitude": 36.35611,
    "aliases": ["Al Labwah"]
  },
  {
    "name": "Maallaqet",
    "city": "Baalbek-Hermel",
    "governorate": "Baalbek-Hermel",
    "latitude": 34.25111,
    "longitude": 36.39028,
    "aliases": ["Maallaqet ej Jdaide"]
  },
  {
    "name": "Maaraboun",
    "city": "Baalbek-Hermel",
    "governorate": "Baalbek-Hermel",
    "latitude": 33.85056,
    "longitude": 36.18917,
    "aliases": []
  },
  {
    "name": "Majdaloun",
    "city": "Baalbek-Hermel",
    "governorate": "Baalbek-Hermel",
    "latitude": 33.99028,
    "longitude": 36.13361,
    "aliases": ["Majdalun"]
  },
  {
    "name": "Maqial el Qalaa",
    "city": "Baalbek-Hermel",
    "governorate": "Baalbek-Hermel",
    "latitude": 34.2175,
    "longitude": 36.09167,
    "aliases": []
  },
  {
    "name": "Maql el Bouadte",
    "city": "Baalbek-Hermel",
    "governorate": "Baalbek-Hermel",
    "latitude": 34.09472,
    "longitude": 36.05083,
    "aliases": ["Maql al Bawaditah"]
  },
  {
    "name": "Maqne",
    "city": "Baalbek-Hermel",
    "governorate": "Baalbek-Hermel",
    "latitude": 34.07972,
    "longitude": 36.20667,
    "aliases": ["Maakne", "Makneh", "Maqnah"]
  },
  {
    "name": "Maqsous",
    "city": "Baalbek-Hermel",
    "governorate": "Baalbek-Hermel",
    "latitude": 33.98889,
    "longitude": 36.23139,
    "aliases": ["Maqsus"]
  },
  {
    "name": "Marah 'Abbas",
    "city": "Baalbek-Hermel",
    "governorate": "Baalbek-Hermel",
    "latitude": 34.43333,
    "longitude": 36.41667,
    "aliases": []
  },
  {
    "name": "Marah Qirraytah",
    "city": "Baalbek-Hermel",
    "governorate": "Baalbek-Hermel",
    "latitude": 34.36667,
    "longitude": 36.3,
    "aliases": []
  },
  {
    "name": "Marj Hine",
    "city": "Baalbek-Hermel",
    "governorate": "Baalbek-Hermel",
    "latitude": 34.40917,
    "longitude": 36.25444,
    "aliases": ["Marjhin"]
  },
  {
    "name": "Masnaa Bednayel",
    "city": "Baalbek-Hermel",
    "governorate": "Baalbek-Hermel",
    "latitude": 33.91,
    "longitude": 36.00972,
    "aliases": []
  },
  {
    "name": "Masnaa ez Zohr",
    "city": "Baalbek-Hermel",
    "governorate": "Baalbek-Hermel",
    "latitude": 34.01972,
    "longitude": 35.99528,
    "aliases": []
  },
  {
    "name": "Mazraat Beit el Fqih",
    "city": "Baalbek-Hermel",
    "governorate": "Baalbek-Hermel",
    "latitude": 34.34833,
    "longitude": 36.34194,
    "aliases": []
  },
  {
    "name": "Mazraat Beit el Ghoussain",
    "city": "Baalbek-Hermel",
    "governorate": "Baalbek-Hermel",
    "latitude": 34.11528,
    "longitude": 36.08361,
    "aliases": []
  },
  {
    "name": "Mazraat Beit Mechaik",
    "city": "Baalbek-Hermel",
    "governorate": "Baalbek-Hermel",
    "latitude": 34.04472,
    "longitude": 36.03028,
    "aliases": ["Beit Mechaik"]
  },
  {
    "name": "Mazraat Beit Slaibi",
    "city": "Baalbek-Hermel",
    "governorate": "Baalbek-Hermel",
    "latitude": 33.97222,
    "longitude": 35.98583,
    "aliases": []
  },
  {
    "name": "Mazraat Beit Taqch",
    "city": "Baalbek-Hermel",
    "governorate": "Baalbek-Hermel",
    "latitude": 33.92944,
    "longitude": 36.03583,
    "aliases": []
  },
  {
    "name": "Mazraat ed Dallil",
    "city": "Baalbek-Hermel",
    "governorate": "Baalbek-Hermel",
    "latitude": 34.04083,
    "longitude": 36.05111,
    "aliases": []
  },
  {
    "name": "Mazraat ed Dhour",
    "city": "Baalbek-Hermel",
    "governorate": "Baalbek-Hermel",
    "latitude": 34.03528,
    "longitude": 36.03444,
    "aliases": []
  },
  {
    "name": "Mazraat et Talle",
    "city": "Baalbek-Hermel",
    "governorate": "Baalbek-Hermel",
    "latitude": 34.49056,
    "longitude": 36.38167,
    "aliases": []
  },
  {
    "name": "Mazraat Matar",
    "city": "Baalbek-Hermel",
    "governorate": "Baalbek-Hermel",
    "latitude": 34.09833,
    "longitude": 36.09167,
    "aliases": []
  },
  {
    "name": "Mazraat Oumm Aali",
    "city": "Baalbek-Hermel",
    "governorate": "Baalbek-Hermel",
    "latitude": 34.045,
    "longitude": 36.04028,
    "aliases": []
  },
  {
    "name": "Mazraat Remasse",
    "city": "Baalbek-Hermel",
    "governorate": "Baalbek-Hermel",
    "latitude": 34.04361,
    "longitude": 36.0225,
    "aliases": []
  },
  {
    "name": "Mchaitiye",
    "city": "Baalbek-Hermel",
    "governorate": "Baalbek-Hermel",
    "latitude": 34.155,
    "longitude": 36.085,
    "aliases": ["Al Mashatiyah", "Al Mushaytiyah"]
  },
  {
    "name": "Mrah Aabbas",
    "city": "Baalbek-Hermel",
    "governorate": "Baalbek-Hermel",
    "latitude": 34.39722,
    "longitude": 36.35056,
    "aliases": []
  },
  {
    "name": "Mrah Aali Mehdi Aallaou",
    "city": "Baalbek-Hermel",
    "governorate": "Baalbek-Hermel",
    "latitude": 34.36778,
    "longitude": 36.27722,
    "aliases": []
  },
  {
    "name": "Mrah Abou Handal",
    "city": "Baalbek-Hermel",
    "governorate": "Baalbek-Hermel",
    "latitude": 34.32167,
    "longitude": 36.31472,
    "aliases": ["Marah Abu Hanzal"]
  },
  {
    "name": "Mrah Beit Aallaou",
    "city": "Baalbek-Hermel",
    "governorate": "Baalbek-Hermel",
    "latitude": 34.36722,
    "longitude": 36.3425,
    "aliases": []
  },
  {
    "name": "Mrah Beit Aassaf",
    "city": "Baalbek-Hermel",
    "governorate": "Baalbek-Hermel",
    "latitude": 34.06361,
    "longitude": 36.02028,
    "aliases": []
  },
  {
    "name": "Mrah Beit el Aabd",
    "city": "Baalbek-Hermel",
    "governorate": "Baalbek-Hermel",
    "latitude": 34.39417,
    "longitude": 36.33333,
    "aliases": []
  },
  {
    "name": "Mrah Beit el Qazah",
    "city": "Baalbek-Hermel",
    "governorate": "Baalbek-Hermel",
    "latitude": 34.125,
    "longitude": 36.11528,
    "aliases": ["Marah Bayt al Quzah"]
  },
  {
    "name": "Mrah Beit Mhammed",
    "city": "Baalbek-Hermel",
    "governorate": "Baalbek-Hermel",
    "latitude": 34.31361,
    "longitude": 36.31222,
    "aliases": ["Marah Bayt Muhammad"]
  },
  {
    "name": "Mrah Beit Slim",
    "city": "Baalbek-Hermel",
    "governorate": "Baalbek-Hermel",
    "latitude": 34.05778,
    "longitude": 36.04083,
    "aliases": ["Marah Bayt Salim"]
  },
  {
    "name": "Mrah Bou Brahim",
    "city": "Baalbek-Hermel",
    "governorate": "Baalbek-Hermel",
    "latitude": 34.06778,
    "longitude": 36.04056,
    "aliases": ["Marah Bu Ibrahim", "Merah Abou Ibrahim"]
  },
  {
    "name": "Mrah Bou Chahine",
    "city": "Baalbek-Hermel",
    "governorate": "Baalbek-Hermel",
    "latitude": 34.11528,
    "longitude": 36.08944,
    "aliases": ["Marah Bu Shahin"]
  },
  {
    "name": "Mrah Bou Qamar ed Dine",
    "city": "Baalbek-Hermel",
    "governorate": "Baalbek-Hermel",
    "latitude": 34.39167,
    "longitude": 36.345,
    "aliases": ["Marah Abu Qamar ad Din"]
  },
  {
    "name": "Mrah Daas Taane",
    "city": "Baalbek-Hermel",
    "governorate": "Baalbek-Hermel",
    "latitude": 34.30722,
    "longitude": 36.31028,
    "aliases": []
  },
  {
    "name": "Mrah Dahr ech Chir",
    "city": "Baalbek-Hermel",
    "governorate": "Baalbek-Hermel",
    "latitude": 34.3175,
    "longitude": 36.31139,
    "aliases": ["Marah Dahr ash Shir"]
  },
  {
    "name": "Mrah ech Charqi",
    "city": "Baalbek-Hermel",
    "governorate": "Baalbek-Hermel",
    "latitude": 34.39917,
    "longitude": 36.38306,
    "aliases": []
  },
  {
    "name": "Mrah ech Chiaair",
    "city": "Baalbek-Hermel",
    "governorate": "Baalbek-Hermel",
    "latitude": 34.1725,
    "longitude": 36.13167,
    "aliases": []
  },
  {
    "name": "Mrah ech Chnain",
    "city": "Baalbek-Hermel",
    "governorate": "Baalbek-Hermel",
    "latitude": 34.4,
    "longitude": 36.345,
    "aliases": ["Marah ash Shunayn"]
  },
  {
    "name": "Mrah ech Choaab",
    "city": "Baalbek-Hermel",
    "governorate": "Baalbek-Hermel",
    "latitude": 34.23222,
    "longitude": 36.28278,
    "aliases": []
  },
  {
    "name": "Mrah ed Dahr",
    "city": "Baalbek-Hermel",
    "governorate": "Baalbek-Hermel",
    "latitude": 34.32806,
    "longitude": 36.36472,
    "aliases": ["Marah ad Dahr"]
  },
  {
    "name": "Mrah ed Deqaiyeq",
    "city": "Baalbek-Hermel",
    "governorate": "Baalbek-Hermel",
    "latitude": 34.05694,
    "longitude": 36.02722,
    "aliases": ["Marah ad Duqayyiq"]
  },
  {
    "name": "Mrah ej Jaje",
    "city": "Baalbek-Hermel",
    "governorate": "Baalbek-Hermel",
    "latitude": 34.14944,
    "longitude": 36.14056,
    "aliases": ["Bechouate", "Marah al Jajah"]
  },
  {
    "name": "Mrah ej Jamal",
    "city": "Baalbek-Hermel",
    "governorate": "Baalbek-Hermel",
    "latitude": 34.05472,
    "longitude": 36.03611,
    "aliases": ["Marah al Jamal"]
  },
  {
    "name": "Mrah ej Jeddaoui",
    "city": "Baalbek-Hermel",
    "governorate": "Baalbek-Hermel",
    "latitude": 34.07417,
    "longitude": 36.05,
    "aliases": ["Marah al Juddawi"]
  },
  {
    "name": "Mrah el Aabd",
    "city": "Baalbek-Hermel",
    "governorate": "Baalbek-Hermel",
    "latitude": 34.23972,
    "longitude": 36.265,
    "aliases": []
  },
  {
    "name": "Mrah el Aaokch",
    "city": "Baalbek-Hermel",
    "governorate": "Baalbek-Hermel",
    "latitude": 34.22389,
    "longitude": 36.2625,
    "aliases": []
  },
  {
    "name": "Mrah el Aaouja",
    "city": "Baalbek-Hermel",
    "governorate": "Baalbek-Hermel",
    "latitude": 34.18,
    "longitude": 36.16028,
    "aliases": []
  },
  {
    "name": "Mrah el Aaqabe",
    "city": "Baalbek-Hermel",
    "governorate": "Baalbek-Hermel",
    "latitude": 34.28417,
    "longitude": 36.27528,
    "aliases": []
  },
  {
    "name": "Mrah el Aarab",
    "city": "Baalbek-Hermel",
    "governorate": "Baalbek-Hermel",
    "latitude": 34.47778,
    "longitude": 36.35444,
    "aliases": []
  },
  {
    "name": "Mrah el Aassi",
    "city": "Baalbek-Hermel",
    "governorate": "Baalbek-Hermel",
    "latitude": 34.17806,
    "longitude": 36.13972,
    "aliases": []
  },
  {
    "name": "Mrah el Aataibe",
    "city": "Baalbek-Hermel",
    "governorate": "Baalbek-Hermel",
    "latitude": 34.345,
    "longitude": 36.34306,
    "aliases": []
  },
  {
    "name": "Mrah el Ahmar",
    "city": "Baalbek-Hermel",
    "governorate": "Baalbek-Hermel",
    "latitude": 34.04278,
    "longitude": 36.01222,
    "aliases": ["Marah al Ahmar"]
  },
  {
    "name": "Mrah el Aouja",
    "city": "Baalbek-Hermel",
    "governorate": "Baalbek-Hermel",
    "latitude": 34.13472,
    "longitude": 36.08194,
    "aliases": []
  },
  {
    "name": "Mrah el Ballout",
    "city": "Baalbek-Hermel",
    "governorate": "Baalbek-Hermel",
    "latitude": 34.36222,
    "longitude": 36.33361,
    "aliases": ["Marah al Ballut"]
  },
  {
    "name": "Mrah el Biyad",
    "city": "Baalbek-Hermel",
    "governorate": "Baalbek-Hermel",
    "latitude": 34.37278,
    "longitude": 36.30528,
    "aliases": ["Marah al Bayad"]
  },
  {
    "name": "Mrah el Blata",
    "city": "Baalbek-Hermel",
    "governorate": "Baalbek-Hermel",
    "latitude": 34.07556,
    "longitude": 36.05611,
    "aliases": ["Marah al Balatah"]
  },
  {
    "name": "Mrah el Ghamirat",
    "city": "Baalbek-Hermel",
    "governorate": "Baalbek-Hermel",
    "latitude": 34.29389,
    "longitude": 36.28917,
    "aliases": ["Marah al Ghamirat"]
  },
  {
    "name": "Mrah el Gharbi",
    "city": "Baalbek-Hermel",
    "governorate": "Baalbek-Hermel",
    "latitude": 34.3975,
    "longitude": 36.37833,
    "aliases": []
  },
  {
    "name": "Mrah el Harfouch",
    "city": "Baalbek-Hermel",
    "governorate": "Baalbek-Hermel",
    "latitude": 34.19528,
    "longitude": 36.24444,
    "aliases": ["Harfush"]
  },
  {
    "name": "Mrah el Hariqa",
    "city": "Baalbek-Hermel",
    "governorate": "Baalbek-Hermel",
    "latitude": 34.3975,
    "longitude": 36.33833,
    "aliases": ["Marah al Hariqah"]
  },
  {
    "name": "Mrah el Khaoukh",
    "city": "Baalbek-Hermel",
    "governorate": "Baalbek-Hermel",
    "latitude": 34.19028,
    "longitude": 36.2,
    "aliases": ["Marah al Khawkh"]
  },
  {
    "name": "Mrah el Mahlise",
    "city": "Baalbek-Hermel",
    "governorate": "Baalbek-Hermel",
    "latitude": 34.28056,
    "longitude": 36.26111,
    "aliases": ["Marah al Mahlisah"]
  },
  {
    "name": "Mrah el Mahlissi",
    "city": "Baalbek-Hermel",
    "governorate": "Baalbek-Hermel",
    "latitude": 34.41361,
    "longitude": 36.32028,
    "aliases": ["Marah al Mahlisah"]
  },
  {
    "name": "Mrah el Mechmechi",
    "city": "Baalbek-Hermel",
    "governorate": "Baalbek-Hermel",
    "latitude": 34.16167,
    "longitude": 36.19583,
    "aliases": ["Marah al Mishmishi"]
  },
  {
    "name": "Mrah el Mechref",
    "city": "Baalbek-Hermel",
    "governorate": "Baalbek-Hermel",
    "latitude": 34.43167,
    "longitude": 36.36222,
    "aliases": ["Marah al Mashraf"]
  },
  {
    "name": "Mrah el Mir Aali",
    "city": "Baalbek-Hermel",
    "governorate": "Baalbek-Hermel",
    "latitude": 34.14389,
    "longitude": 36.18833,
    "aliases": []
  },
  {
    "name": "Mrah el Moghr",
    "city": "Baalbek-Hermel",
    "governorate": "Baalbek-Hermel",
    "latitude": 34.39194,
    "longitude": 36.3225,
    "aliases": ["Marah al Mughr"]
  },
  {
    "name": "Mrah el Ouadi",
    "city": "Baalbek-Hermel",
    "governorate": "Baalbek-Hermel",
    "latitude": 34.16389,
    "longitude": 36.19389,
    "aliases": ["Marah al Wadi"]
  },
  {
    "name": "Mrah el Qloud",
    "city": "Baalbek-Hermel",
    "governorate": "Baalbek-Hermel",
    "latitude": 34.12861,
    "longitude": 36.06889,
    "aliases": ["Marah al Qulud"]
  },
  {
    "name": "Mrah el Qorne",
    "city": "Baalbek-Hermel",
    "governorate": "Baalbek-Hermel",
    "latitude": 34.3275,
    "longitude": 36.32111,
    "aliases": ["Marah al Qurnah"]
  },
  {
    "name": "Mrah en Naouas",
    "city": "Baalbek-Hermel",
    "governorate": "Baalbek-Hermel",
    "latitude": 34.33778,
    "longitude": 36.30417,
    "aliases": []
  },
  {
    "name": "Mrah es Saiyed",
    "city": "Baalbek-Hermel",
    "governorate": "Baalbek-Hermel",
    "latitude": 34.10167,
    "longitude": 36.08667,
    "aliases": ["Marah as Sayyid"]
  },
  {
    "name": "Mrah es Siyad",
    "city": "Baalbek-Hermel",
    "governorate": "Baalbek-Hermel",
    "latitude": 34.37278,
    "longitude": 36.34361,
    "aliases": ["Marah as Siyad"]
  },
  {
    "name": "Mrah ez Zouarib",
    "city": "Baalbek-Hermel",
    "governorate": "Baalbek-Hermel",
    "latitude": 34.28889,
    "longitude": 36.26806,
    "aliases": ["Marah az Zawarib"]
  },
  {
    "name": "Mrah Haissoun",
    "city": "Baalbek-Hermel",
    "governorate": "Baalbek-Hermel",
    "latitude": 34.03944,
    "longitude": 36.04028,
    "aliases": ["Marah Haysun"]
  },
  {
    "name": "Mrah Hqab en Najjar",
    "city": "Baalbek-Hermel",
    "governorate": "Baalbek-Hermel",
    "latitude": 34.33583,
    "longitude": 36.36944,
    "aliases": ["Marah Hiqab an Najjar"]
  },
  {
    "name": "Mrah Hsain Taane",
    "city": "Baalbek-Hermel",
    "governorate": "Baalbek-Hermel",
    "latitude": 34.30361,
    "longitude": 36.30333,
    "aliases": []
  },
  {
    "name": "Mrah Jouar el Qorra",
    "city": "Baalbek-Hermel",
    "governorate": "Baalbek-Hermel",
    "latitude": 34.2975,
    "longitude": 36.27667,
    "aliases": ["Marah Juwar al Qurrah"]
  },
  {
    "name": "Mrah Najib",
    "city": "Baalbek-Hermel",
    "governorate": "Baalbek-Hermel",
    "latitude": 34.09333,
    "longitude": 36.06806,
    "aliases": ["Marah Najib"]
  },
  {
    "name": "Mrah Nayef",
    "city": "Baalbek-Hermel",
    "governorate": "Baalbek-Hermel",
    "latitude": 34.37889,
    "longitude": 36.32778,
    "aliases": ["Marah Na'if"]
  },
  {
    "name": "Mrah Ouadi el Malloul",
    "city": "Baalbek-Hermel",
    "governorate": "Baalbek-Hermel",
    "latitude": 34.38333,
    "longitude": 36.31028,
    "aliases": ["Marah Wadi al Mallul"]
  },
  {
    "name": "Mrah Rouhana",
    "city": "Baalbek-Hermel",
    "governorate": "Baalbek-Hermel",
    "latitude": 34.1425,
    "longitude": 36.1325,
    "aliases": ["Marah Ruhana"]
  },
  {
    "name": "Mrah Sabri Hsain",
    "city": "Baalbek-Hermel",
    "governorate": "Baalbek-Hermel",
    "latitude": 34.33444,
    "longitude": 36.325,
    "aliases": ["Marah Sabri Husayn"]
  },
  {
    "name": "Mrah Sahlet el Barghach",
    "city": "Baalbek-Hermel",
    "governorate": "Baalbek-Hermel",
    "latitude": 34.375,
    "longitude": 36.29222,
    "aliases": ["Marah Sahlat al Barghash"]
  },
  {
    "name": "Mrah Semaane",
    "city": "Baalbek-Hermel",
    "governorate": "Baalbek-Hermel",
    "latitude": 34.17917,
    "longitude": 36.15361,
    "aliases": []
  },
  {
    "name": "Mrah Soukkar",
    "city": "Baalbek-Hermel",
    "governorate": "Baalbek-Hermel",
    "latitude": 34.17833,
    "longitude": 36.145,
    "aliases": []
  },
  {
    "name": "Mrah Torhonn",
    "city": "Baalbek-Hermel",
    "governorate": "Baalbek-Hermel",
    "latitude": 34.38389,
    "longitude": 36.33722,
    "aliases": ["Marah at Tirkhin"]
  },
  {
    "name": "Mrah Yassine",
    "city": "Baalbek-Hermel",
    "governorate": "Baalbek-Hermel",
    "latitude": 34.33722,
    "longitude": 36.335,
    "aliases": ["Marah Yasin"]
  },
  {
    "name": "Mrah Zouaitini",
    "city": "Baalbek-Hermel",
    "governorate": "Baalbek-Hermel",
    "latitude": 34.35639,
    "longitude": 36.32583,
    "aliases": ["Marah Zuwaytinah"]
  },
  {
    "name": "Mtolle",
    "city": "Baalbek-Hermel",
    "governorate": "Baalbek-Hermel",
    "latitude": 34.40917,
    "longitude": 36.39861,
    "aliases": []
  },
  {
    "name": "Nabha",
    "city": "Baalbek-Hermel",
    "governorate": "Baalbek-Hermel",
    "latitude": 34.18417,
    "longitude": 36.22583,
    "aliases": []
  },
  {
    "name": "Nabi Rchade",
    "city": "Baalbek-Hermel",
    "governorate": "Baalbek-Hermel",
    "latitude": 33.99472,
    "longitude": 36.03861,
    "aliases": ["An Nabi Rashad", "An Nabi Rashadah", "En-Nabi Rshadah"]
  },
  {
    "name": "Nabi Sami",
    "city": "Baalbek-Hermel",
    "governorate": "Baalbek-Hermel",
    "latitude": 33.96222,
    "longitude": 36.01667,
    "aliases": ["An Nabi Sami", "alnby samy", "nby samy"]
  },
  {
    "name": "Nahle",
    "city": "Baalbek-Hermel",
    "governorate": "Baalbek-Hermel",
    "latitude": 34.04222,
    "longitude": 36.26083,
    "aliases": ["Nahlah"]
  },
  {
    "name": "Nasriye",
    "city": "Baalbek-Hermel",
    "governorate": "Baalbek-Hermel",
    "latitude": 34.44694,
    "longitude": 36.425,
    "aliases": []
  },
  {
    "name": "Ouadi Bnit",
    "city": "Baalbek-Hermel",
    "governorate": "Baalbek-Hermel",
    "latitude": 34.32917,
    "longitude": 36.31639,
    "aliases": ["Daoura", "Wadi Bunayt"]
  },
  {
    "name": "Ouadi el Assouad",
    "city": "Baalbek-Hermel",
    "governorate": "Baalbek-Hermel",
    "latitude": 34.04,
    "longitude": 35.99806,
    "aliases": ["Wadi al Aswad"]
  },
  {
    "name": "Ouadi en Naira",
    "city": "Baalbek-Hermel",
    "governorate": "Baalbek-Hermel",
    "latitude": 34.31278,
    "longitude": 36.30639,
    "aliases": ["Wadi an Na'irah"]
  },
  {
    "name": "Ouadi et Tourkmane",
    "city": "Baalbek-Hermel",
    "governorate": "Baalbek-Hermel",
    "latitude": 34.37667,
    "longitude": 36.31917,
    "aliases": ["Wadi at Turkuman"]
  },
  {
    "name": "Ouadi Faara",
    "city": "Baalbek-Hermel",
    "governorate": "Baalbek-Hermel",
    "latitude": 34.28556,
    "longitude": 36.30556,
    "aliases": []
  },
  {
    "name": "Qalaat Bakdach",
    "city": "Baalbek-Hermel",
    "governorate": "Baalbek-Hermel",
    "latitude": 34.30139,
    "longitude": 36.36222,
    "aliases": ["Marah Bakdash"]
  },
  {
    "name": "Qalb es Sabaa",
    "city": "Baalbek-Hermel",
    "governorate": "Baalbek-Hermel",
    "latitude": 34.03167,
    "longitude": 36.00139,
    "aliases": []
  },
  {
    "name": "Qalile",
    "city": "Baalbek-Hermel",
    "governorate": "Baalbek-Hermel",
    "latitude": 34.19917,
    "longitude": 36.22778,
    "aliases": ["Qalilah"]
  },
  {
    "name": "Qarha",
    "city": "Baalbek-Hermel",
    "governorate": "Baalbek-Hermel",
    "latitude": 34.16694,
    "longitude": 36.20694,
    "aliases": []
  },
  {
    "name": "Qasr el Loujouj",
    "city": "Baalbek-Hermel",
    "governorate": "Baalbek-Hermel",
    "latitude": 34.025,
    "longitude": 36.24833,
    "aliases": ["Qasr al Lajuj"]
  },
  {
    "name": "Qeddam",
    "city": "Baalbek-Hermel",
    "governorate": "Baalbek-Hermel",
    "latitude": 34.18278,
    "longitude": 36.19611,
    "aliases": ["El Qaddam", "El Qeddam", "Qaddam"]
  },
  {
    "name": "Qraita",
    "city": "Baalbek-Hermel",
    "governorate": "Baalbek-Hermel",
    "latitude": 34.37444,
    "longitude": 36.315,
    "aliases": ["Qirraytah"]
  },
  {
    "name": "Qsarnaba",
    "city": "Baalbek-Hermel",
    "governorate": "Baalbek-Hermel",
    "latitude": 33.9125,
    "longitude": 35.99444,
    "aliases": ["Qasr Naba"]
  },
  {
    "name": "Ras Aaqabet er Ratl",
    "city": "Baalbek-Hermel",
    "governorate": "Baalbek-Hermel",
    "latitude": 34.38917,
    "longitude": 36.30833,
    "aliases": []
  },
  {
    "name": "Ras Baalbek",
    "city": "Baalbek-Hermel",
    "governorate": "Baalbek-Hermel",
    "latitude": 34.25889,
    "longitude": 36.41917,
    "aliases": []
  },
  {
    "name": "Ras el Aassi",
    "city": "Baalbek-Hermel",
    "governorate": "Baalbek-Hermel",
    "latitude": 34.35278,
    "longitude": 36.38806,
    "aliases": []
  },
  {
    "name": "Ras el Ain",
    "city": "Baalbek-Hermel",
    "governorate": "Baalbek-Hermel",
    "latitude": 34.00028,
    "longitude": 36.21861,
    "aliases": ["Antipatris"]
  },
  {
    "name": "Ras el Kroum",
    "city": "Baalbek-Hermel",
    "governorate": "Baalbek-Hermel",
    "latitude": 34.33972,
    "longitude": 36.47917,
    "aliases": []
  },
  {
    "name": "Rasm el Hadeth",
    "city": "Baalbek-Hermel",
    "governorate": "Baalbek-Hermel",
    "latitude": 34.14139,
    "longitude": 36.27556,
    "aliases": ["Rasm al Hadath", "rsm alhdth"]
  },
  {
    "name": "Riha",
    "city": "Baalbek-Hermel",
    "governorate": "Baalbek-Hermel",
    "latitude": 34.15361,
    "longitude": 36.18972,
    "aliases": []
  },
  {
    "name": "Saaide",
    "city": "Baalbek-Hermel",
    "governorate": "Baalbek-Hermel",
    "latitude": 34.02583,
    "longitude": 36.08167,
    "aliases": ["Es Saide"]
  },
  {
    "name": "Sabbara",
    "city": "Baalbek-Hermel",
    "governorate": "Baalbek-Hermel",
    "latitude": 34.22528,
    "longitude": 36.34861,
    "aliases": ["Sabbarah"]
  },
  {
    "name": "Safra",
    "city": "Baalbek-Hermel",
    "governorate": "Baalbek-Hermel",
    "latitude": 34.14833,
    "longitude": 36.16528,
    "aliases": ["Safrah"]
  },
  {
    "name": "Saidet en Najat",
    "city": "Baalbek-Hermel",
    "governorate": "Baalbek-Hermel",
    "latitude": 34.2475,
    "longitude": 36.12222,
    "aliases": ["Sayyidat an Naja"]
  },
  {
    "name": "Satha",
    "city": "Baalbek-Hermel",
    "governorate": "Baalbek-Hermel",
    "latitude": 34.00194,
    "longitude": 36.21444,
    "aliases": ["Sathah"]
  },
  {
    "name": "Sbouba",
    "city": "Baalbek-Hermel",
    "governorate": "Baalbek-Hermel",
    "latitude": 34.22194,
    "longitude": 36.27472,
    "aliases": ["Sbuba"]
  },